<?xml version="1.0" encoding="UTF-8"?>
<kml xmlns="http://www.opengis.net/kml/2.2" xmlns:gx="http://www.google.com/kml/ext/2.2" xmlns:kml="http://www.opengis.net/kml/2.2" xmlns:atom="http://www.w3.org/2005/Atom">
<Document>
	<name>demand_zones</name>
	<open>1</open>
	<gx:CascadingStyle kml:id="__managed_style_0D5C0D6AFA1E88320CD2">
		<Style>
			<IconStyle>
				<scale>1.2</scale>
				<Icon>
					<href>https://earth.google.com/earth/rpc/cc/icon?color=1976d2<![CDATA[&]]>id=2000<![CDATA[&]]>scale=4</href>
				</Icon>
				<hotSpot x="64" y="128" xunits="pixels" yunits="insetPixels"></hotSpot>
			</IconStyle>
			<LabelStyle>
			</LabelStyle>
			<LineStyle>
				<color>ff2dc0fb</color>
				<width>6</width>
			</LineStyle>
			<PolyStyle>
				<color>40ffffff</color>
			</PolyStyle>
			<BalloonStyle>
				<displayMode>hide</displayMode>
			</BalloonStyle>
		</Style>
	</gx:CascadingStyle><gx:CascadingStyle kml:id="__managed_style_1E4BF22F431E88320CD1">
		<Style>
			<IconStyle>
				<Icon>
					<href>https://earth.google.com/earth/rpc/cc/icon?color=1976d2<![CDATA[&]]>id=2000<![CDATA[&]]>scale=4</href>
				</Icon>
				<hotSpot x="64" y="128" xunits="pixels" yunits="insetPixels"></hotSpot>
			</IconStyle>
			<LabelStyle>
			</LabelStyle>
			<LineStyle>
				<color>ff2dc0fb</color>
				<width>4</width>
			</LineStyle>
			<PolyStyle>
				<color>40ffffff</color>
			</PolyStyle>
			<BalloonStyle>
				<displayMode>hide</displayMode>
			</BalloonStyle>
		</Style>
	</gx:CascadingStyle>
	<StyleMap id="default0">
		<Pair>
			<key>normal</key>
			<styleUrl>#default</styleUrl>
		</Pair>
		<Pair>
			<key>highlight</key>
			<styleUrl>#hl</styleUrl>
		</Pair>
	</StyleMap>
	<Style id="hl">
		<IconStyle>
			<scale>0.5</scale>
			<Icon>
				<href>http://maps.google.com/mapfiles/kml/shapes/placemark_circle_highlight.png</href>
			</Icon>
		</IconStyle>
		<LabelStyle>
			<scale>0.5</scale>
		</LabelStyle>
		<ListStyle>
		</ListStyle>
		<LineStyle>
			<color>ff000000</color>
		</LineStyle>
		<PolyStyle>
			<color>80ffffff</color>
			<colorMode>random</colorMode>
		</PolyStyle>
	</Style>
	<Style id="default">
		<IconStyle>
			<scale>0.5</scale>
			<Icon>
				<href>http://maps.google.com/mapfiles/kml/shapes/placemark_circle.png</href>
			</Icon>
		</IconStyle>
		<LabelStyle>
			<scale>0.5</scale>
		</LabelStyle>
		<ListStyle>
		</ListStyle>
		<LineStyle>
			<color>ff000000</color>
		</LineStyle>
		<PolyStyle>
			<color>80ffffff</color>
			<colorMode>random</colorMode>
		</PolyStyle>
	</Style>
	<Placemark>
		<name>PICKLE LAKE A</name>
		<styleUrl>#default0</styleUrl>
		<Point>
			<coordinates>-90.21416666666669,51.4463888888889,0</coordinates>
		</Point>
	</Placemark>
	<Placemark>
		<name>RED LAKE A</name>
		<styleUrl>#default0</styleUrl>
		<Point>
			<coordinates>-93.79305555555561,51.0669444444444,0</coordinates>
		</Point>
	</Placemark>
	<Placemark>
		<name>BARWICK</name>
		<styleUrl>#default0</styleUrl>
		<Point>
			<coordinates>-93.9666666666667,48.6333333333333,0</coordinates>
		</Point>
	</Placemark>
	<Placemark>
		<name>FORT FRANCES A</name>
		<styleUrl>#default0</styleUrl>
		<Point>
			<coordinates>-93.43333333333331,48.65,0</coordinates>
		</Point>
	</Placemark>
	<Placemark>
		<name>MINE CENTRE</name>
		<styleUrl>#default0</styleUrl>
		<Point>
			<coordinates>-92.6166666666667,48.7666666666667,0</coordinates>
		</Point>
	</Placemark>
	<Placemark>
		<name>EMO RADBOURNE</name>
		<styleUrl>#default0</styleUrl>
		<Point>
			<coordinates>-93.8333333333333,48.6833333333333,0</coordinates>
		</Point>
	</Placemark>
	<Placemark>
		<name>DRYDEN A</name>
		<styleUrl>#default0</styleUrl>
		<Point>
			<coordinates>-92.74999999999999,49.8333333333333,0</coordinates>
		</Point>
	</Placemark>
	<Placemark>
		<name>KENORA A</name>
		<styleUrl>#default0</styleUrl>
		<Point>
			<coordinates>-94.36527861111109,49.7902791666667,0</coordinates>
		</Point>
	</Placemark>
	<Placemark>
		<name>RAWSON LAKE</name>
		<styleUrl>#default0</styleUrl>
		<Point>
			<coordinates>-93.7166666666667,49.65,0</coordinates>
		</Point>
	</Placemark>
	<Placemark>
		<name>SIOUX LOOKOUT A</name>
		<styleUrl>#default0</styleUrl>
		<Point>
			<coordinates>-91.89999999999999,50.1166666666667,0</coordinates>
		</Point>
	</Placemark>
	<Placemark>
		<name>GERALDTON A</name>
		<styleUrl>#default0</styleUrl>
		<Point>
			<coordinates>-86.9305694444444,49.7828027777778,0</coordinates>
		</Point>
	</Placemark>
	<Placemark>
		<name>FLINT</name>
		<styleUrl>#default0</styleUrl>
		<Point>
			<coordinates>-89.68333333333329,48.35,0</coordinates>
		</Point>
	</Placemark>
	<Placemark>
		<name>WHITEFISH LAKE</name>
		<styleUrl>#default0</styleUrl>
		<Point>
			<coordinates>-89.9166666666667,48.2833333333333,0</coordinates>
		</Point>
	</Placemark>
	<Placemark>
		<name>SAULT STE MARIE A</name>
		<styleUrl>#default0</styleUrl>
		<Point>
			<coordinates>-84.5094444444444,46.4833333333333,0</coordinates>
		</Point>
	</Placemark>
	<Placemark>
		<name>WAWA A</name>
		<styleUrl>#default0</styleUrl>
		<Point>
			<coordinates>-84.7833333333333,47.9666666666667,0</coordinates>
		</Point>
	</Placemark>
	<Placemark>
		<name>CHAPLEAU A</name>
		<styleUrl>#default0</styleUrl>
		<Point>
			<coordinates>-83.34666666666671,47.82,0</coordinates>
		</Point>
	</Placemark>
	<Placemark>
		<name>CONISTON STP</name>
		<styleUrl>#default0</styleUrl>
		<Point>
			<coordinates>-80.84999999999999,46.4833333333333,0</coordinates>
		</Point>
	</Placemark>
	<Placemark>
		<name>MASSEY</name>
		<styleUrl>#default0</styleUrl>
		<Point>
			<coordinates>-82.0247283333333,46.19308000000001,0</coordinates>
		</Point>
	</Placemark>
	<Placemark>
		<name>SUDBURY A</name>
		<styleUrl>#default0</styleUrl>
		<Point>
			<coordinates>-80.7977777777778,46.6255555555556,0</coordinates>
		</Point>
	</Placemark>
	<Placemark>
		<name>EARLTON A</name>
		<styleUrl>#default0</styleUrl>
		<Point>
			<coordinates>-79.84999999999999,47.7,0</coordinates>
		</Point>
	</Placemark>
	<Placemark>
		<name>KAPUSKASING CDA</name>
		<styleUrl>#default0</styleUrl>
		<Point>
			<coordinates>-82.43333333333329,49.4,0</coordinates>
		</Point>
	</Placemark>
	<Placemark>
		<name>KAPUSKASING A</name>
		<styleUrl>#default0</styleUrl>
		<Point>
			<coordinates>-82.4675,49.4138888888889,0</coordinates>
		</Point>
	</Placemark>
	<Placemark>
		<name>MOOSONEE UA</name>
		<styleUrl>#default0</styleUrl>
		<Point>
			<coordinates>-80.65000000000001,51.2666666666667,0</coordinates>
		</Point>
	</Placemark>
	<Placemark>
		<name>TIMMINS VICTOR POWER A</name>
		<styleUrl>#default0</styleUrl>
		<Point>
			<coordinates>-81.37666666666669,48.5697222222222,0</coordinates>
		</Point>
	</Placemark>
	<Placemark>
		<name>DWIGHT</name>
		<styleUrl>#default0</styleUrl>
		<Point>
			<coordinates>-78.90000000000001,45.3833333333333,0</coordinates>
		</Point>
	</Placemark>
	<Placemark>
		<name>NORTH BAY A</name>
		<styleUrl>#default0</styleUrl>
		<Point>
			<coordinates>-79.4227777777778,46.3636111111111,0</coordinates>
		</Point>
	</Placemark>
	<Placemark>
		<name>AVONMORE</name>
		<styleUrl>#default0</styleUrl>
		<Point>
			<coordinates>-74.97084,45.17001166666671,0</coordinates>
		</Point>
	</Placemark>
	<Placemark>
		<name>BROCKVILLE PCC</name>
		<styleUrl>#default0</styleUrl>
		<Point>
			<coordinates>-75.6666666666667,44.6,0</coordinates>
		</Point>
	</Placemark>
	<Placemark>
		<name>CHALK RIVER AECL</name>
		<styleUrl>#default0</styleUrl>
		<Point>
			<coordinates>-77.3666666666667,46.05,0</coordinates>
		</Point>
	</Placemark>
	<Placemark>
		<name>COMBERMERE</name>
		<styleUrl>#default0</styleUrl>
		<Point>
			<coordinates>-77.6166666666667,45.3666666666667,0</coordinates>
		</Point>
	</Placemark>
	<Placemark>
		<name>CORNWALL</name>
		<styleUrl>#default0</styleUrl>
		<Point>
			<coordinates>-74.74890000000001,45.0155783333333,0</coordinates>
		</Point>
	</Placemark>
	<Placemark>
		<name>DALHOUSIE MILLS</name>
		<styleUrl>#default0</styleUrl>
		<Point>
			<coordinates>-74.4666666666667,45.31666666666671,0</coordinates>
		</Point>
	</Placemark>
	<Placemark>
		<name>DRUMMOND CENTRE</name>
		<styleUrl>#default0</styleUrl>
		<Point>
			<coordinates>-76.252805,45.03224500000001,0</coordinates>
		</Point>
	</Placemark>
	<Placemark>
		<name>HARTINGTON IHD</name>
		<styleUrl>#default0</styleUrl>
		<Point>
			<coordinates>-76.6903016666667,44.4280633333333,0</coordinates>
		</Point>
	</Placemark>
	<Placemark>
		<name>KINGSTON PUMPING STATION</name>
		<styleUrl>#default0</styleUrl>
		<Point>
			<coordinates>-76.4805666666667,44.2439033333333,0</coordinates>
		</Point>
	</Placemark>
	<Placemark>
		<name>LYNDHURST SHAWMERE</name>
		<styleUrl>#default0</styleUrl>
		<Point>
			<coordinates>-76.0833333333333,44.5166666666667,0</coordinates>
		</Point>
	</Placemark>
	<Placemark>
		<name>MORRISBURG</name>
		<styleUrl>#default0</styleUrl>
		<Point>
			<coordinates>-75.18834333333329,44.9236183333333,0</coordinates>
		</Point>
	</Placemark>
	<Placemark>
		<name>OTTAWA CDA</name>
		<styleUrl>#default0</styleUrl>
		<Point>
			<coordinates>-75.7166666666667,45.3833333333333,0</coordinates>
		</Point>
	</Placemark>
	<Placemark>
		<name>OTTAWA MACDONALD-CARTIER INT&apos;L A</name>
		<styleUrl>#default0</styleUrl>
		<Point>
			<coordinates>-75.6691666666667,45.32249999999999,0</coordinates>
		</Point>
	</Placemark>
	<Placemark>
		<name>RUSSELL</name>
		<styleUrl>#default0</styleUrl>
		<Point>
			<coordinates>-75.35945333333331,45.26278,0</coordinates>
		</Point>
	</Placemark>
	<Placemark>
		<name>ST. ALBERT</name>
		<styleUrl>#default0</styleUrl>
		<Point>
			<coordinates>-75.0636183333333,45.2872233333333,0</coordinates>
		</Point>
	</Placemark>
	<Placemark>
		<name>ALLISTON NELSON</name>
		<styleUrl>#default0</styleUrl>
		<Point>
			<coordinates>-79.8722466666667,44.1513966666667,0</coordinates>
		</Point>
	</Placemark>
	<Placemark>
		<name>BARRIE WPCC</name>
		<styleUrl>#default0</styleUrl>
		<Point>
			<coordinates>-79.689725,44.3758366666667,0</coordinates>
		</Point>
	</Placemark>
	<Placemark>
		<name>BEATRICE 2</name>
		<styleUrl>#default0</styleUrl>
		<Point>
			<coordinates>-79.40000000000001,45.1333333333333,0</coordinates>
		</Point>
	</Placemark>
	<Placemark>
		<name>CHATSWORTH</name>
		<styleUrl>#default0</styleUrl>
		<Point>
			<coordinates>-80.9055577777778,44.395015,0</coordinates>
		</Point>
	</Placemark>
	<Placemark>
		<name>COOKSTOWN</name>
		<styleUrl>#default0</styleUrl>
		<Point>
			<coordinates>-79.6947466666667,44.2066783333333,0</coordinates>
		</Point>
	</Placemark>
	<Placemark>
		<name>DORSET MOE</name>
		<styleUrl>#default0</styleUrl>
		<Point>
			<coordinates>-78.93333333333329,45.2166666666667,0</coordinates>
		</Point>
	</Placemark>
	<Placemark>
		<name>DUNCHURCH</name>
		<styleUrl>#default0</styleUrl>
		<Point>
			<coordinates>-79.8833333333333,45.6166666666667,0</coordinates>
		</Point>
	</Placemark>
	<Placemark>
		<name>DURHAM</name>
		<styleUrl>#default0</styleUrl>
		<Point>
			<coordinates>-80.81666666666671,44.1833333333333,0</coordinates>
		</Point>
	</Placemark>
	<Placemark>
		<name>HANOVER</name>
		<styleUrl>#default0</styleUrl>
		<Point>
			<coordinates>-81.00584499999999,44.116405,0</coordinates>
		</Point>
	</Placemark>
	<Placemark>
		<name>MUSKOKA A</name>
		<styleUrl>#default0</styleUrl>
		<Point>
			<coordinates>-79.3,44.9666666666667,0</coordinates>
		</Point>
	</Placemark>
	<Placemark>
		<name>OWEN SOUND MOE</name>
		<styleUrl>#default0</styleUrl>
		<Point>
			<coordinates>-80.93333333333329,44.5833333333333,0</coordinates>
		</Point>
	</Placemark>
	<Placemark>
		<name>POWASSAN</name>
		<styleUrl>#default0</styleUrl>
		<Point>
			<coordinates>-79.25,46.1166666666667,0</coordinates>
		</Point>
	</Placemark>
	<Placemark>
		<name>PROTON STATION</name>
		<styleUrl>#default0</styleUrl>
		<Point>
			<coordinates>-80.51666666666669,44.1666666666667,0</coordinates>
		</Point>
	</Placemark>
	<Placemark>
		<name>SHANTY BAY</name>
		<styleUrl>#default0</styleUrl>
		<Point>
			<coordinates>-79.6327983333333,44.3994583333333,0</coordinates>
		</Point>
	</Placemark>
	<Placemark>
		<name>WIARTON A</name>
		<styleUrl>#default0</styleUrl>
		<Point>
			<coordinates>-81.10722222222221,44.7458333333333,0</coordinates>
		</Point>
	</Placemark>
	<Placemark>
		<name>THORNBURY SLAMA</name>
		<styleUrl>#default0</styleUrl>
		<Point>
			<coordinates>-80.4852966666667,44.57362,0</coordinates>
		</Point>
	</Placemark>
	<Placemark>
		<name>BLYTH</name>
		<styleUrl>#default0</styleUrl>
		<Point>
			<coordinates>-81.38363333333329,43.71834,0</coordinates>
		</Point>
	</Placemark>
	<Placemark>
		<name>EXETER</name>
		<styleUrl>#default0</styleUrl>
		<Point>
			<coordinates>-81.5,43.35,0</coordinates>
		</Point>
	</Placemark>
	<Placemark>
		<name>PETROLIA TOWN</name>
		<styleUrl>#default0</styleUrl>
		<Point>
			<coordinates>-82.1666666666667,42.8833333333333,0</coordinates>
		</Point>
	</Placemark>
	<Placemark>
		<name>SARNIA AIRPORT</name>
		<styleUrl>#default0</styleUrl>
		<Point>
			<coordinates>-82.3047466666667,42.9922383333333,0</coordinates>
		</Point>
	</Placemark>
	<Placemark>
		<name>TARA</name>
		<styleUrl>#default0</styleUrl>
		<Point>
			<coordinates>-81.1569611111111,44.5194666666667,0</coordinates>
		</Point>
	</Placemark>
	<Placemark>
		<name>CHATHAM WPCP</name>
		<styleUrl>#default0</styleUrl>
		<Point>
			<coordinates>-82.21528000000001,42.3900066666667,0</coordinates>
		</Point>
	</Placemark>
	<Placemark>
		<name>FORT ERIE</name>
		<styleUrl>#default0</styleUrl>
		<Point>
			<coordinates>-78.9666666666667,42.8833333333333,0</coordinates>
		</Point>
	</Placemark>
	<Placemark>
		<name>KINGSVILLE MOE</name>
		<styleUrl>#default0</styleUrl>
		<Point>
			<coordinates>-82.6739133333333,42.0430733333333,0</coordinates>
		</Point>
	</Placemark>
	<Placemark>
		<name>NEW GLASGOW</name>
		<styleUrl>#default0</styleUrl>
		<Point>
			<coordinates>-81.6361366666667,42.5144616666667,0</coordinates>
		</Point>
	</Placemark>
	<Placemark>
		<name>NIAGARA FALLS NPCSH</name>
		<styleUrl>#default0</styleUrl>
		<Point>
			<coordinates>-79.05,43.1333333333333,0</coordinates>
		</Point>
	</Placemark>
	<Placemark>
		<name>PORT COLBORNE</name>
		<styleUrl>#default0</styleUrl>
		<Point>
			<coordinates>-79.25,42.8833333333333,0</coordinates>
		</Point>
	</Placemark>
	<Placemark>
		<name>RIDGEVILLE</name>
		<styleUrl>#default0</styleUrl>
		<Point>
			<coordinates>-79.325,43.0416666666667,0</coordinates>
		</Point>
	</Placemark>
	<Placemark>
		<name>ST THOMAS WPCP</name>
		<styleUrl>#default0</styleUrl>
		<Point>
			<coordinates>-81.20501166666671,42.768335,0</coordinates>
		</Point>
	</Placemark>
	<Placemark>
		<name>VINELAND RITTENHOUSE</name>
		<styleUrl>#default0</styleUrl>
		<Point>
			<coordinates>-79.4166666666667,43.1666666666667,0</coordinates>
		</Point>
	</Placemark>
	<Placemark>
		<name>WELLAND</name>
		<styleUrl>#default0</styleUrl>
		<Point>
			<coordinates>-79.26113833333331,42.9925266666667,0</coordinates>
		</Point>
	</Placemark>
	<Placemark>
		<name>WINDSOR A</name>
		<styleUrl>#default0</styleUrl>
		<Point>
			<coordinates>-82.95555555555551,42.2755555555556,0</coordinates>
		</Point>
	</Placemark>
	<Placemark>
		<name>BRANTFORD MOE</name>
		<styleUrl>#default0</styleUrl>
		<Point>
			<coordinates>-80.23333333333331,43.1333333333333,0</coordinates>
		</Point>
	</Placemark>
	<Placemark>
		<name>CULLODEN EASEY</name>
		<styleUrl>#default0</styleUrl>
		<Point>
			<coordinates>-80.8466833333333,42.8894555555556,0</coordinates>
		</Point>
	</Placemark>
	<Placemark>
		<name>FERGUS SHAND DAM</name>
		<styleUrl>#default0</styleUrl>
		<Point>
			<coordinates>-80.330305,43.7347466666667,0</coordinates>
		</Point>
	</Placemark>
	<Placemark>
		<name>FOLDENS</name>
		<styleUrl>#default0</styleUrl>
		<Point>
			<coordinates>-80.78084333333329,43.018355,0</coordinates>
		</Point>
	</Placemark>
	<Placemark>
		<name>GLEN ALLAN</name>
		<styleUrl>#default0</styleUrl>
		<Point>
			<coordinates>-80.71030166666669,43.683905,0</coordinates>
		</Point>
	</Placemark>
	<Placemark>
		<name>ILDERTON BEAR CREEK</name>
		<styleUrl>#default0</styleUrl>
		<Point>
			<coordinates>-81.43333333333329,43.05,0</coordinates>
		</Point>
	</Placemark>
	<Placemark>
		<name>LONDON INT&apos;L AIRPORT</name>
		<styleUrl>#default0</styleUrl>
		<Point>
			<coordinates>-81.15111111111111,43.0330555555556,0</coordinates>
		</Point>
	</Placemark>
	<Placemark>
		<name>ROSEVILLE</name>
		<styleUrl>#default0</styleUrl>
		<Point>
			<coordinates>-80.4736266666667,43.3536183333333,0</coordinates>
		</Point>
	</Placemark>
	<Placemark>
		<name>RUSKVIEW</name>
		<styleUrl>#default0</styleUrl>
		<Point>
			<coordinates>-80.1333333333333,44.2333333333333,0</coordinates>
		</Point>
	</Placemark>
	<Placemark>
		<name>STRATFORD WWTP</name>
		<styleUrl>#default0</styleUrl>
		<Point>
			<coordinates>-81.00473833333329,43.3688933333333,0</coordinates>
		</Point>
	</Placemark>
	<Placemark>
		<name>WATERLOO WELLINGTON A</name>
		<styleUrl>#default0</styleUrl>
		<Point>
			<coordinates>-80.3833333333333,43.45,0</coordinates>
		</Point>
	</Placemark>
	<Placemark>
		<name>WOODSTOCK</name>
		<styleUrl>#default0</styleUrl>
		<Point>
			<coordinates>-80.7705666666667,43.1361233333333,0</coordinates>
		</Point>
	</Placemark>
	<Placemark>
		<name>BELLEVILLE</name>
		<styleUrl>#default0</styleUrl>
		<Point>
			<coordinates>-77.394735,44.15057,0</coordinates>
		</Point>
	</Placemark>
	<Placemark>
		<name>BOWMANVILLE MOSTERT</name>
		<styleUrl>#default0</styleUrl>
		<Point>
			<coordinates>-78.6666666666667,43.9166666666667,0</coordinates>
		</Point>
	</Placemark>
	<Placemark>
		<name>BURKETON MCLAUGHLIN</name>
		<styleUrl>#default0</styleUrl>
		<Point>
			<coordinates>-78.8,44.0333333333333,0</coordinates>
		</Point>
	</Placemark>
	<Placemark>
		<name>COBOURG STP</name>
		<styleUrl>#default0</styleUrl>
		<Point>
			<coordinates>-78.18333333333329,43.9666666666667,0</coordinates>
		</Point>
	</Placemark>
	<Placemark>
		<name>CRESSY</name>
		<styleUrl>#default0</styleUrl>
		<Point>
			<coordinates>-76.84999999999999,44.1,0</coordinates>
		</Point>
	</Placemark>
	<Placemark>
		<name>GEORGETOWN WWTP</name>
		<styleUrl>#default0</styleUrl>
		<Point>
			<coordinates>-79.87917166666671,43.640005,0</coordinates>
		</Point>
	</Placemark>
	<Placemark>
		<name>HAMILTON A</name>
		<styleUrl>#default0</styleUrl>
		<Point>
			<coordinates>-79.9341766666667,43.1716866666667,0</coordinates>
		</Point>
	</Placemark>
	<Placemark>
		<name>JANETVILLE</name>
		<styleUrl>#default0</styleUrl>
		<Point>
			<coordinates>-78.6333333333333,44.2166666666667,0</coordinates>
		</Point>
	</Placemark>
	<Placemark>
		<name>KING SMOKE TREE</name>
		<styleUrl>#default0</styleUrl>
		<Point>
			<coordinates>-79.51666666666669,44.0166666666667,0</coordinates>
		</Point>
	</Placemark>
	<Placemark>
		<name>MILLGROVE</name>
		<styleUrl>#default0</styleUrl>
		<Point>
			<coordinates>-79.9666666666667,43.3166666666667,0</coordinates>
		</Point>
	</Placemark>
	<Placemark>
		<name>ORANGEVILLE MOE</name>
		<styleUrl>#default0</styleUrl>
		<Point>
			<coordinates>-80.0864066666667,43.9183516666667,0</coordinates>
		</Point>
	</Placemark>
	<Placemark>
		<name>OSHAWA WPCP</name>
		<styleUrl>#default0</styleUrl>
		<Point>
			<coordinates>-78.8333333333333,43.8666666666667,0</coordinates>
		</Point>
	</Placemark>
	<Placemark>
		<name>RICHMOND HILL</name>
		<styleUrl>#default0</styleUrl>
		<Point>
			<coordinates>-79.4477983333333,43.8772483333333,0</coordinates>
		</Point>
	</Placemark>
	<Placemark>
		<name>TORONTO</name>
		<styleUrl>#default0</styleUrl>
		<Point>
			<coordinates>-79.40000000000001,43.6666666666667,0</coordinates>
		</Point>
	</Placemark>
	<Placemark>
		<name>TORONTO LESTER B. PEARSON INT&apos;L A</name>
		<styleUrl>#default0</styleUrl>
		<Point>
			<coordinates>-79.6305555555556,43.6772222222222,0</coordinates>
		</Point>
	</Placemark>
	<Placemark>
		<name>TRENTON A</name>
		<styleUrl>#default0</styleUrl>
		<Point>
			<coordinates>-77.5333333333333,44.1166666666667,0</coordinates>
		</Point>
	</Placemark>
	<Placemark>
		<name>MOUNTAINVIEW</name>
		<styleUrl>#default0</styleUrl>
		<Point>
			<coordinates>-77.3016916666667,44.05197,0</coordinates>
		</Point>
	</Placemark>
	<Placemark>
		<name>TORONTO BUTTONVILLE A</name>
		<styleUrl>#default0</styleUrl>
		<Point>
			<coordinates>-79.37,43.8622222222222,0</coordinates>
		</Point>
	</Placemark>
	<Placemark>
		<name>LINDSAY FROST</name>
		<styleUrl>#default0</styleUrl>
		<Point>
			<coordinates>-78.74027833333329,44.3383533333333,0</coordinates>
		</Point>
	</Placemark>
	<Placemark>
		<name>MINDEN</name>
		<styleUrl>#default0</styleUrl>
		<Point>
			<coordinates>-78.7166666666667,44.9333333333333,0</coordinates>
		</Point>
	</Placemark>
	<Placemark>
		<name>PETERBOROUGH A</name>
		<styleUrl>#default0</styleUrl>
		<Point>
			<coordinates>-78.3666666666667,44.2333333333333,0</coordinates>
		</Point>
	</Placemark>
	<Placemark>
		<name>PETERBOROUGH TRENT U</name>
		<styleUrl>#default0</styleUrl>
		<Point>
			<coordinates>-78.3,44.3666666666667,0</coordinates>
		</Point>
	</Placemark>
	<Placemark>
		<name>ATTAWAPISKAT A</name>
		<styleUrl>#default0</styleUrl>
		<Point>
			<coordinates>-82.4319444444444,52.92750000000001,0</coordinates>
		</Point>
	</Placemark>
	<Placemark>
		<name>BIG TROUT LAKE A</name>
		<styleUrl>#default0</styleUrl>
		<Point>
			<coordinates>-89.8969444444444,53.8177777777778,0</coordinates>
		</Point>
	</Placemark>
	<Placemark>
		<name>BIG TROUT LAKE</name>
		<styleUrl>#default0</styleUrl>
		<Point>
			<coordinates>-89.89166666666669,53.81611111111109,0</coordinates>
		</Point>
	</Placemark>
	<Placemark>
		<name>EAR FALLS (AUT)</name>
		<styleUrl>#default0</styleUrl>
		<Point>
			<coordinates>-93.2213888888889,50.6305555555556,0</coordinates>
		</Point>
	</Placemark>
	<Placemark>
		<name>FORT SEVERN A</name>
		<styleUrl>#default0</styleUrl>
		<Point>
			<coordinates>-87.6761111111111,56.0188888888889,0</coordinates>
		</Point>
	</Placemark>
	<Placemark>
		<name>LANSDOWNE HOUSE A</name>
		<styleUrl>#default0</styleUrl>
		<Point>
			<coordinates>-87.9341666666667,52.1955555555556,0</coordinates>
		</Point>
	</Placemark>
	<Placemark>
		<name>LANSDOWNE HOUSE (AUT)</name>
		<styleUrl>#default0</styleUrl>
		<Point>
			<coordinates>-87.9361111111111,52.1961111111111,0</coordinates>
		</Point>
	</Placemark>
	<Placemark>
		<name>MUSKRAT DAM</name>
		<styleUrl>#default0</styleUrl>
		<Point>
			<coordinates>-91.7627777777778,53.4413888888889,0</coordinates>
		</Point>
	</Placemark>
	<Placemark>
		<name>PEAWANUCK (AUT)</name>
		<styleUrl>#default0</styleUrl>
		<Point>
			<coordinates>-85.43333333333329,54.9833333333333,0</coordinates>
		</Point>
	</Placemark>
	<Placemark>
		<name>PEAWANUCK A</name>
		<styleUrl>#default0</styleUrl>
		<Point>
			<coordinates>-85.4433333333333,54.9880555555556,0</coordinates>
		</Point>
	</Placemark>
	<Placemark>
		<name>PICKLE LAKE (AUT)</name>
		<styleUrl>#default0</styleUrl>
		<Point>
			<coordinates>-90.21777972222222,51.4491669444444,0</coordinates>
		</Point>
	</Placemark>
	<Placemark>
		<name>RED LAKE A</name>
		<styleUrl>#default0</styleUrl>
		<Point>
			<coordinates>-93.79305555555561,51.0672222222222,0</coordinates>
		</Point>
	</Placemark>
	<Placemark>
		<name>SANDY LAKE A</name>
		<styleUrl>#default0</styleUrl>
		<Point>
			<coordinates>-93.34444444444441,53.0641666666667,0</coordinates>
		</Point>
	</Placemark>
	<Placemark>
		<name>ATIKOKAN (AUT)</name>
		<styleUrl>#default0</styleUrl>
		<Point>
			<coordinates>-91.6280555555556,48.7611111111111,0</coordinates>
		</Point>
	</Placemark>
	<Placemark>
		<name>FORT FRANCES RCS</name>
		<styleUrl>#default0</styleUrl>
		<Point>
			<coordinates>-93.4388894444444,48.6511111111111,0</coordinates>
		</Point>
	</Placemark>
	<Placemark>
		<name>MINE CENTRE SOUTHWEST</name>
		<styleUrl>#default0</styleUrl>
		<Point>
			<coordinates>-92.6227777777778,48.7597388888889,0</coordinates>
		</Point>
	</Placemark>
	<Placemark>
		<name>DRYDEN REGIONAL</name>
		<styleUrl>#default0</styleUrl>
		<Point>
			<coordinates>-92.7441666666667,49.8275,0</coordinates>
		</Point>
	</Placemark>
	<Placemark>
		<name>KENORA RCS</name>
		<styleUrl>#default0</styleUrl>
		<Point>
			<coordinates>-94.37777777777779,49.79055555555559,0</coordinates>
		</Point>
	</Placemark>
	<Placemark>
		<name>KENORA A</name>
		<styleUrl>#default0</styleUrl>
		<Point>
			<coordinates>-94.3630555555556,49.7883333333333,0</coordinates>
		</Point>
	</Placemark>
	<Placemark>
		<name>RAWSON LAKE (AUT)</name>
		<styleUrl>#default0</styleUrl>
		<Point>
			<coordinates>-93.7327783333333,49.66416694444441,0</coordinates>
		</Point>
	</Placemark>
	<Placemark>
		<name>ROYAL ISLAND (AUT)</name>
		<styleUrl>#default0</styleUrl>
		<Point>
			<coordinates>-94.76305555555561,49.4686111111111,0</coordinates>
		</Point>
	</Placemark>
	<Placemark>
		<name>SIOUX LOOKOUT A</name>
		<styleUrl>#default0</styleUrl>
		<Point>
			<coordinates>-91.90805555555551,50.1141666666667,0</coordinates>
		</Point>
	</Placemark>
	<Placemark>
		<name>SIOUX LOOKOUT AIRPORT</name>
		<styleUrl>#default0</styleUrl>
		<Point>
			<coordinates>-91.90555555555559,50.1141666666667,0</coordinates>
		</Point>
	</Placemark>
	<Placemark>
		<name>ARMSTRONG (AUT)</name>
		<styleUrl>#default0</styleUrl>
		<Point>
			<coordinates>-88.9052777777778,50.2936111111111,0</coordinates>
		</Point>
	</Placemark>
	<Placemark>
		<name>ARMSTRONG A</name>
		<styleUrl>#default0</styleUrl>
		<Point>
			<coordinates>-88.9097222222222,50.2902777777778,0</coordinates>
		</Point>
	</Placemark>
	<Placemark>
		<name>CAMERON FALLS (AUT)</name>
		<styleUrl>#default0</styleUrl>
		<Point>
			<coordinates>-88.3447222222222,49.1538888888889,0</coordinates>
		</Point>
	</Placemark>
	<Placemark>
		<name>CARIBOU ISLAND (AUT)</name>
		<styleUrl>#default0</styleUrl>
		<Point>
			<coordinates>-85.8333333333333,47.3333333333333,0</coordinates>
		</Point>
	</Placemark>
	<Placemark>
		<name>GERALDTON A</name>
		<styleUrl>#default0</styleUrl>
		<Point>
			<coordinates>-86.9386111111111,49.7786111111111,0</coordinates>
		</Point>
	</Placemark>
	<Placemark>
		<name>GERALDTON A</name>
		<styleUrl>#default0</styleUrl>
		<Point>
			<coordinates>-86.9886111111111,49.7786111111111,0</coordinates>
		</Point>
	</Placemark>
	<Placemark>
		<name>GERALDTON AIRPORT</name>
		<styleUrl>#default0</styleUrl>
		<Point>
			<coordinates>-86.93232,49.78090999999999,0</coordinates>
		</Point>
	</Placemark>
	<Placemark>
		<name>HAZELWOOD</name>
		<styleUrl>#default0</styleUrl>
		<Point>
			<coordinates>-89.26666666666669,48.4666666666667,0</coordinates>
		</Point>
	</Placemark>
	<Placemark>
		<name>MARATHON A</name>
		<styleUrl>#default0</styleUrl>
		<Point>
			<coordinates>-86.3458333333333,48.7572222222222,0</coordinates>
		</Point>
	</Placemark>
	<Placemark>
		<name>PUKASKWA (AUT)</name>
		<styleUrl>#default0</styleUrl>
		<Point>
			<coordinates>-86.2872222222222,48.60777777777781,0</coordinates>
		</Point>
	</Placemark>
	<Placemark>
		<name>TERRACE BAY AIRPORT</name>
		<styleUrl>#default0</styleUrl>
		<Point>
			<coordinates>-87.0916780555556,48.8155705555556,0</coordinates>
		</Point>
	</Placemark>
	<Placemark>
		<name>THUNDER BAY</name>
		<styleUrl>#default0</styleUrl>
		<Point>
			<coordinates>-89.3216666666667,48.3719444444444,0</coordinates>
		</Point>
	</Placemark>
	<Placemark>
		<name>THUNDER BAY A</name>
		<styleUrl>#default0</styleUrl>
		<Point>
			<coordinates>-89.3216666666667,48.3719444444444,0</coordinates>
		</Point>
	</Placemark>
	<Placemark>
		<name>THUNDER BAY BURWOOD</name>
		<styleUrl>#default0</styleUrl>
		<Point>
			<coordinates>-89.27825,48.4139444444444,0</coordinates>
		</Point>
	</Placemark>
	<Placemark>
		<name>THUNDER BAY CS</name>
		<styleUrl>#default0</styleUrl>
		<Point>
			<coordinates>-89.3272222222222,48.3694444444444,0</coordinates>
		</Point>
	</Placemark>
	<Placemark>
		<name>UPSALA (AUT)</name>
		<styleUrl>#default0</styleUrl>
		<Point>
			<coordinates>-90.46666666666671,49.03333333333331,0</coordinates>
		</Point>
	</Placemark>
	<Placemark>
		<name>WELCOME ISLAND (AUT)</name>
		<styleUrl>#default0</styleUrl>
		<Point>
			<coordinates>-89.1194444444444,48.36916666666669,0</coordinates>
		</Point>
	</Placemark>
	<Placemark>
		<name>LITTLE FLATLAND ISLAND (AUT)</name>
		<styleUrl>#default0</styleUrl>
		<Point>
			<coordinates>-88.3058333333333,49.69,0</coordinates>
		</Point>
	</Placemark>
	<Placemark>
		<name>LAKE SUPERIOR PROVINCIAL PARK</name>
		<styleUrl>#default0</styleUrl>
		<Point>
			<coordinates>-84.81416666666669,47.7230555555556,0</coordinates>
		</Point>
	</Placemark>
	<Placemark>
		<name>SAULT STE MARIE A</name>
		<styleUrl>#default0</styleUrl>
		<Point>
			<coordinates>-84.50972222222219,46.485,0</coordinates>
		</Point>
	</Placemark>
	<Placemark>
		<name>SAULT STE. MARIE AIRPORT</name>
		<styleUrl>#default0</styleUrl>
		<Point>
			<coordinates>-84.51666666666669,46.4780555555556,0</coordinates>
		</Point>
	</Placemark>
	<Placemark>
		<name>WAWA A</name>
		<styleUrl>#default0</styleUrl>
		<Point>
			<coordinates>-84.78638888888889,47.96694444444439,0</coordinates>
		</Point>
	</Placemark>
	<Placemark>
		<name>KILLARNEY (AUT)</name>
		<styleUrl>#default0</styleUrl>
		<Point>
			<coordinates>-81.48333333333331,45.9666666666667,0</coordinates>
		</Point>
	</Placemark>
	<Placemark>
		<name>CHAPLEAU A</name>
		<styleUrl>#default0</styleUrl>
		<Point>
			<coordinates>-83.3469444444444,47.8202777777778,0</coordinates>
		</Point>
	</Placemark>
	<Placemark>
		<name>MONETVILLE 2</name>
		<styleUrl>#default0</styleUrl>
		<Point>
			<coordinates>-80.3030555555556,46.21527777777779,0</coordinates>
		</Point>
	</Placemark>
	<Placemark>
		<name>SUDBURY CLIMATE</name>
		<styleUrl>#default0</styleUrl>
		<Point>
			<coordinates>-80.7961333333333,46.63224722222219,0</coordinates>
		</Point>
	</Placemark>
	<Placemark>
		<name>BONNER LAKE</name>
		<styleUrl>#default0</styleUrl>
		<Point>
			<coordinates>-82.1236111111111,49.38333333333329,0</coordinates>
		</Point>
	</Placemark>
	<Placemark>
		<name>EARLTON A</name>
		<styleUrl>#default0</styleUrl>
		<Point>
			<coordinates>-79.84888888888889,47.695,0</coordinates>
		</Point>
	</Placemark>
	<Placemark>
		<name>EARLTON CLIMATE</name>
		<styleUrl>#default0</styleUrl>
		<Point>
			<coordinates>-79.84888888888889,47.695,0</coordinates>
		</Point>
	</Placemark>
	<Placemark>
		<name>KAPUSKASING A</name>
		<styleUrl>#default0</styleUrl>
		<Point>
			<coordinates>-82.46833333333331,49.4116666666667,0</coordinates>
		</Point>
	</Placemark>
	<Placemark>
		<name>KAPUSKASING CDA ON</name>
		<styleUrl>#default0</styleUrl>
		<Point>
			<coordinates>-82.4436111111111,49.4063888888889,0</coordinates>
		</Point>
	</Placemark>
	<Placemark>
		<name>KIRKLAND LAKE CS</name>
		<styleUrl>#default0</styleUrl>
		<Point>
			<coordinates>-80,48.15000000000001,0</coordinates>
		</Point>
	</Placemark>
	<Placemark>
		<name>MOOSONEE</name>
		<styleUrl>#default0</styleUrl>
		<Point>
			<coordinates>-80.6077777777778,51.2911111111111,0</coordinates>
		</Point>
	</Placemark>
	<Placemark>
		<name>MOOSONEE RCS</name>
		<styleUrl>#default0</styleUrl>
		<Point>
			<coordinates>-80.6180555555556,51.2916666666667,0</coordinates>
		</Point>
	</Placemark>
	<Placemark>
		<name>NAGAGAMI (AUT)</name>
		<styleUrl>#default0</styleUrl>
		<Point>
			<coordinates>-84.1636944444444,49.7468333333333,0</coordinates>
		</Point>
	</Placemark>
	<Placemark>
		<name>OGOKI POST A</name>
		<styleUrl>#default0</styleUrl>
		<Point>
			<coordinates>-85.90111111111111,51.6586111111111,0</coordinates>
		</Point>
	</Placemark>
	<Placemark>
		<name>TIMMINS CLIMATE</name>
		<styleUrl>#default0</styleUrl>
		<Point>
			<coordinates>-81.3902777777778,48.55722222222221,0</coordinates>
		</Point>
	</Placemark>
	<Placemark>
		<name>TIMMINS A</name>
		<styleUrl>#default0</styleUrl>
		<Point>
			<coordinates>-81.37666666666669,48.57055555555559,0</coordinates>
		</Point>
	</Placemark>
	<Placemark>
		<name>ALGONQUIN PARK EAST GATE</name>
		<styleUrl>#default0</styleUrl>
		<Point>
			<coordinates>-78.26666666666669,45.5333333333333,0</coordinates>
		</Point>
	</Placemark>
	<Placemark>
		<name>NORTH BAY A</name>
		<styleUrl>#default0</styleUrl>
		<Point>
			<coordinates>-79.42416666666669,46.3638888888889,0</coordinates>
		</Point>
	</Placemark>
	<Placemark>
		<name>NORTH BAY AIRPORT</name>
		<styleUrl>#default0</styleUrl>
		<Point>
			<coordinates>-79.4025,46.37499999999999,0</coordinates>
		</Point>
	</Placemark>
	<Placemark>
		<name>GORE BAY-MANITOULIN</name>
		<styleUrl>#default0</styleUrl>
		<Point>
			<coordinates>-82.5672222222222,45.88166666666671,0</coordinates>
		</Point>
	</Placemark>
	<Placemark>
		<name>GORE BAY CLIMATE</name>
		<styleUrl>#default0</styleUrl>
		<Point>
			<coordinates>-82.56666666666671,45.8833333333333,0</coordinates>
		</Point>
	</Placemark>
	<Placemark>
		<name>GREAT DUCK ISLAND (AUT)</name>
		<styleUrl>#default0</styleUrl>
		<Point>
			<coordinates>-82.95,45.6333333333333,0</coordinates>
		</Point>
	</Placemark>
	<Placemark>
		<name>APPLETON</name>
		<styleUrl>#default0</styleUrl>
		<Point>
			<coordinates>-76.11280499999999,45.18584,0</coordinates>
		</Point>
	</Placemark>
	<Placemark>
		<name>BROCKVILLE CLIMATE</name>
		<styleUrl>#default0</styleUrl>
		<Point>
			<coordinates>-75.74833333333331,44.6352777777778,0</coordinates>
		</Point>
	</Placemark>
	<Placemark>
		<name>GRENADIER ISLAND</name>
		<styleUrl>#default0</styleUrl>
		<Point>
			<coordinates>-75.84999999999999,44.4166666666667,0</coordinates>
		</Point>
	</Placemark>
	<Placemark>
		<name>KEMPTVILLE CS</name>
		<styleUrl>#default0</styleUrl>
		<Point>
			<coordinates>-75.6333333333333,45,0</coordinates>
		</Point>
	</Placemark>
	<Placemark>
		<name>KINGSTON CLIMATE</name>
		<styleUrl>#default0</styleUrl>
		<Point>
			<coordinates>-76.5994444444444,44.2233333333333,0</coordinates>
		</Point>
	</Placemark>
	<Placemark>
		<name>KINGSTON A</name>
		<styleUrl>#default0</styleUrl>
		<Point>
			<coordinates>-76.59666666666671,44.2258333333333,0</coordinates>
		</Point>
	</Placemark>
	<Placemark>
		<name>MOOSE CREEK WELLS</name>
		<styleUrl>#default0</styleUrl>
		<Point>
			<coordinates>-74.9627777777778,45.2511111111111,0</coordinates>
		</Point>
	</Placemark>
	<Placemark>
		<name>OMPAH-SEITZ</name>
		<styleUrl>#default0</styleUrl>
		<Point>
			<coordinates>-76.7839133333333,45.053625,0</coordinates>
		</Point>
	</Placemark>
	<Placemark>
		<name>OTTAWA CDA RCS</name>
		<styleUrl>#default0</styleUrl>
		<Point>
			<coordinates>-75.7166666666667,45.3833333333333,0</coordinates>
		</Point>
	</Placemark>
	<Placemark>
		<name>OTTAWA INTL A</name>
		<styleUrl>#default0</styleUrl>
		<Point>
			<coordinates>-75.6666666666667,45.31666666666671,0</coordinates>
		</Point>
	</Placemark>
	<Placemark>
		<name>PEMBROKE CLIMATE</name>
		<styleUrl>#default0</styleUrl>
		<Point>
			<coordinates>-77.2522222222222,45.8602777777778,0</coordinates>
		</Point>
	</Placemark>
	<Placemark>
		<name>PETAWAWA AWOS 2</name>
		<styleUrl>#default0</styleUrl>
		<Point>
			<coordinates>-77.31666666666671,45.95,0</coordinates>
		</Point>
	</Placemark>
	<Placemark>
		<name>PETAWAWA HOFFMAN</name>
		<styleUrl>#default0</styleUrl>
		<Point>
			<coordinates>-77.25,45.8833333333333,0</coordinates>
		</Point>
	</Placemark>
	<Placemark>
		<name>BALDWIN</name>
		<styleUrl>#default0</styleUrl>
		<Point>
			<coordinates>-79.3188966666667,44.266955,0</coordinates>
		</Point>
	</Placemark>
	<Placemark>
		<name>BARRIE LANDFILL</name>
		<styleUrl>#default0</styleUrl>
		<Point>
			<coordinates>-79.7361111111111,44.3852777777778,0</coordinates>
		</Point>
	</Placemark>
	<Placemark>
		<name>BEATRICE CLIMATE</name>
		<styleUrl>#default0</styleUrl>
		<Point>
			<coordinates>-79.4027777777778,45.1402777777778,0</coordinates>
		</Point>
	</Placemark>
	<Placemark>
		<name>COLDWATER WARMINSTER</name>
		<styleUrl>#default0</styleUrl>
		<Point>
			<coordinates>-79.538905,44.6311216666667,0</coordinates>
		</Point>
	</Placemark>
	<Placemark>
		<name>COLLINGWOOD</name>
		<styleUrl>#default0</styleUrl>
		<Point>
			<coordinates>-80.2166666666667,44.5,0</coordinates>
		</Point>
	</Placemark>
	<Placemark>
		<name>LAGOON CITY</name>
		<styleUrl>#default0</styleUrl>
		<Point>
			<coordinates>-79.2166666666667,44.5472222222222,0</coordinates>
		</Point>
	</Placemark>
	<Placemark>
		<name>MARKDALE</name>
		<styleUrl>#default0</styleUrl>
		<Point>
			<coordinates>-80.71194666666671,44.2689,0</coordinates>
		</Point>
	</Placemark>
	<Placemark>
		<name>MUSKOKA</name>
		<styleUrl>#default0</styleUrl>
		<Point>
			<coordinates>-79.3033333333333,44.9747222222222,0</coordinates>
		</Point>
	</Placemark>
	<Placemark>
		<name>ORILLIA BRAIN</name>
		<styleUrl>#default0</styleUrl>
		<Point>
			<coordinates>-79.4388888888889,44.6027777777778,0</coordinates>
		</Point>
	</Placemark>
	<Placemark>
		<name>PARRY SOUND CCG</name>
		<styleUrl>#default0</styleUrl>
		<Point>
			<coordinates>-80.0441666666667,45.3441666666667,0</coordinates>
		</Point>
	</Placemark>
	<Placemark>
		<name>BARRIE-ORO</name>
		<styleUrl>#default0</styleUrl>
		<Point>
			<coordinates>-79.55,44.4833333333333,0</coordinates>
		</Point>
	</Placemark>
	<Placemark>
		<name>SPRUCEDALE</name>
		<styleUrl>#default0</styleUrl>
		<Point>
			<coordinates>-79.4875,45.425,0</coordinates>
		</Point>
	</Placemark>
	<Placemark>
		<name>THORNBURY 3</name>
		<styleUrl>#default0</styleUrl>
		<Point>
			<coordinates>-80.4675166666667,44.551115,0</coordinates>
		</Point>
	</Placemark>
	<Placemark>
		<name>UDORA</name>
		<styleUrl>#default0</styleUrl>
		<Point>
			<coordinates>-79.16139,44.2625,0</coordinates>
		</Point>
	</Placemark>
	<Placemark>
		<name>WIARTON A</name>
		<styleUrl>#default0</styleUrl>
		<Point>
			<coordinates>-81.1086111111111,44.7441666666667,0</coordinates>
		</Point>
	</Placemark>
	<Placemark>
		<name>WESTERN ISLAND (AUT)</name>
		<styleUrl>#default0</styleUrl>
		<Point>
			<coordinates>-80.3666666666667,45.0333333333333,0</coordinates>
		</Point>
	</Placemark>
	<Placemark>
		<name>BORDEN AWOS</name>
		<styleUrl>#default0</styleUrl>
		<Point>
			<coordinates>-79.9116666666667,44.2722222222222,0</coordinates>
		</Point>
	</Placemark>
	<Placemark>
		<name>EGBERT CS</name>
		<styleUrl>#default0</styleUrl>
		<Point>
			<coordinates>-79.7833333333333,44.2333333333333,0</coordinates>
		</Point>
	</Placemark>
	<Placemark>
		<name>COVE ISLAND (AUT)</name>
		<styleUrl>#default0</styleUrl>
		<Point>
			<coordinates>-81.73333333333331,45.3333333333333,0</coordinates>
		</Point>
	</Placemark>
	<Placemark>
		<name>GODERICH</name>
		<styleUrl>#default0</styleUrl>
		<Point>
			<coordinates>-81.7166666666667,43.7666666666667,0</coordinates>
		</Point>
	</Placemark>
	<Placemark>
		<name>KINCARDINE</name>
		<styleUrl>#default0</styleUrl>
		<Point>
			<coordinates>-81.623345,44.1727816666667,0</coordinates>
		</Point>
	</Placemark>
	<Placemark>
		<name>SARNIA</name>
		<styleUrl>#default0</styleUrl>
		<Point>
			<coordinates>-82.3088888888889,42.9994444444444,0</coordinates>
		</Point>
	</Placemark>
	<Placemark>
		<name>SARNIA CLIMATE</name>
		<styleUrl>#default0</styleUrl>
		<Point>
			<coordinates>-82.3,43,0</coordinates>
		</Point>
	</Placemark>
	<Placemark>
		<name>TOBERMORY RCS</name>
		<styleUrl>#default0</styleUrl>
		<Point>
			<coordinates>-81.6333333333333,45.23333333333331,0</coordinates>
		</Point>
	</Placemark>
	<Placemark>
		<name>WROXETER</name>
		<styleUrl>#default0</styleUrl>
		<Point>
			<coordinates>-81.15222666666671,43.8633383333333,0</coordinates>
		</Point>
	</Placemark>
	<Placemark>
		<name>AMHERSTBURG</name>
		<styleUrl>#default0</styleUrl>
		<Point>
			<coordinates>-83.09446333333329,42.1033583333333,0</coordinates>
		</Point>
	</Placemark>
	<Placemark>
		<name>CHATHAM KENT</name>
		<styleUrl>#default0</styleUrl>
		<Point>
			<coordinates>-82.0825,42.3058333333333,0</coordinates>
		</Point>
	</Placemark>
	<Placemark>
		<name>DELHI CS</name>
		<styleUrl>#default0</styleUrl>
		<Point>
			<coordinates>-80.55,42.8666666666667,0</coordinates>
		</Point>
	</Placemark>
	<Placemark>
		<name>GRIMSBY MOUNTAIN</name>
		<styleUrl>#default0</styleUrl>
		<Point>
			<coordinates>-79.558345,43.1836233333333,0</coordinates>
		</Point>
	</Placemark>
	<Placemark>
		<name>HARROW CDA AUTO</name>
		<styleUrl>#default0</styleUrl>
		<Point>
			<coordinates>-82.90000000000001,42.0333333333333,0</coordinates>
		</Point>
	</Placemark>
	<Placemark>
		<name>LONG POINT (AUT)</name>
		<styleUrl>#default0</styleUrl>
		<Point>
			<coordinates>-80.05,42.5333333333333,0</coordinates>
		</Point>
	</Placemark>
	<Placemark>
		<name>PORT WELLER (AUT)</name>
		<styleUrl>#default0</styleUrl>
		<Point>
			<coordinates>-79.2166666666667,43.25,0</coordinates>
		</Point>
	</Placemark>
	<Placemark>
		<name>RIDGETOWN RCS</name>
		<styleUrl>#default0</styleUrl>
		<Point>
			<coordinates>-81.8833333333333,42.45,0</coordinates>
		</Point>
	</Placemark>
	<Placemark>
		<name>ST CATHARINES A</name>
		<styleUrl>#default0</styleUrl>
		<Point>
			<coordinates>-79.1711111111111,43.1916666666667,0</coordinates>
		</Point>
	</Placemark>
	<Placemark>
		<name>TILLSONBURG WWTP</name>
		<styleUrl>#default0</styleUrl>
		<Point>
			<coordinates>-80.7216866666667,42.8552833333333,0</coordinates>
		</Point>
	</Placemark>
	<Placemark>
		<name>VINELAND STATION RCS</name>
		<styleUrl>#default0</styleUrl>
		<Point>
			<coordinates>-79.40000000000001,43.1833333333333,0</coordinates>
		</Point>
	</Placemark>
	<Placemark>
		<name>WELLAND-PELHAM</name>
		<styleUrl>#default0</styleUrl>
		<Point>
			<coordinates>-79.3333333333333,42.9666666666667,0</coordinates>
		</Point>
	</Placemark>
	<Placemark>
		<name>WINDSOR RIVERSIDE</name>
		<styleUrl>#default0</styleUrl>
		<Point>
			<coordinates>-82.93333333333329,42.3333333333333,0</coordinates>
		</Point>
	</Placemark>
	<Placemark>
		<name>WINDSOR A</name>
		<styleUrl>#default0</styleUrl>
		<Point>
			<coordinates>-82.95527777777779,42.2761111111111,0</coordinates>
		</Point>
	</Placemark>
	<Placemark>
		<name>PORT COLBORNE (AUT)</name>
		<styleUrl>#default0</styleUrl>
		<Point>
			<coordinates>-79.25,42.8666666666667,0</coordinates>
		</Point>
	</Placemark>
	<Placemark>
		<name>ERIEAU (AUT)</name>
		<styleUrl>#default0</styleUrl>
		<Point>
			<coordinates>-81.9001436111111,42.2501147222222,0</coordinates>
		</Point>
	</Placemark>
	<Placemark>
		<name>POINT PELEE CS</name>
		<styleUrl>#default0</styleUrl>
		<Point>
			<coordinates>-82.5188894444444,41.9486136111111,0</coordinates>
		</Point>
	</Placemark>
	<Placemark>
		<name>BRANTFORD AIRPORT</name>
		<styleUrl>#default0</styleUrl>
		<Point>
			<coordinates>-80.3313888888889,43.1375,0</coordinates>
		</Point>
	</Placemark>
	<Placemark>
		<name>ELORA RCS</name>
		<styleUrl>#default0</styleUrl>
		<Point>
			<coordinates>-80.4166666666667,43.65,0</coordinates>
		</Point>
	</Placemark>
	<Placemark>
		<name>FERGUS MOE</name>
		<styleUrl>#default0</styleUrl>
		<Point>
			<coordinates>-80.37889666666671,43.7016683333333,0</coordinates>
		</Point>
	</Placemark>
	<Placemark>
		<name>GUELPH TURFGRASS</name>
		<styleUrl>#default0</styleUrl>
		<Point>
			<coordinates>-80.2166666666667,43.55,0</coordinates>
		</Point>
	</Placemark>
	<Placemark>
		<name>KITCHENER WATERLOO</name>
		<styleUrl>#default0</styleUrl>
		<Point>
			<coordinates>-80.3786111111111,43.4608333333333,0</coordinates>
		</Point>
	</Placemark>
	<Placemark>
		<name>LONDON A</name>
		<styleUrl>#default0</styleUrl>
		<Point>
			<coordinates>-81.15111111111111,43.0330555555556,0</coordinates>
		</Point>
	</Placemark>
	<Placemark>
		<name>LONDON CS</name>
		<styleUrl>#default0</styleUrl>
		<Point>
			<coordinates>-81.15000000000001,43.0333333333333,0</coordinates>
		</Point>
	</Placemark>
	<Placemark>
		<name>MOUNT FOREST (AUT)</name>
		<styleUrl>#default0</styleUrl>
		<Point>
			<coordinates>-80.75,43.9833333333333,0</coordinates>
		</Point>
	</Placemark>
	<Placemark>
		<name>STRATHROY-MULLIFARRY</name>
		<styleUrl>#default0</styleUrl>
		<Point>
			<coordinates>-81.6428016666667,42.9805616666667,0</coordinates>
		</Point>
	</Placemark>
	<Placemark>
		<name>BURLINGTON PIERS (AUT)</name>
		<styleUrl>#default0</styleUrl>
		<Point>
			<coordinates>-79.8,43.3,0</coordinates>
		</Point>
	</Placemark>
	<Placemark>
		<name>CENTREVILLE</name>
		<styleUrl>#default0</styleUrl>
		<Point>
			<coordinates>-76.90780333333331,44.4033583333333,0</coordinates>
		</Point>
	</Placemark>
	<Placemark>
		<name>COBOURG (AUT)</name>
		<styleUrl>#default0</styleUrl>
		<Point>
			<coordinates>-78.1666666666667,43.95,0</coordinates>
		</Point>
	</Placemark>
	<Placemark>
		<name>HAMILTON A</name>
		<styleUrl>#default0</styleUrl>
		<Point>
			<coordinates>-79.935,43.1736111111111,0</coordinates>
		</Point>
	</Placemark>
	<Placemark>
		<name>HAMILTON RBG CS</name>
		<styleUrl>#default0</styleUrl>
		<Point>
			<coordinates>-79.9083333333333,43.2916666666667,0</coordinates>
		</Point>
	</Placemark>
	<Placemark>
		<name>OAKVILLE TWN</name>
		<styleUrl>#default0</styleUrl>
		<Point>
			<coordinates>-79.69,43.5125,0</coordinates>
		</Point>
	</Placemark>
	<Placemark>
		<name>OSHAWA</name>
		<styleUrl>#default0</styleUrl>
		<Point>
			<coordinates>-78.8833447222222,43.9227777777778,0</coordinates>
		</Point>
	</Placemark>
	<Placemark>
		<name>POINT PETRE (AUT)</name>
		<styleUrl>#default0</styleUrl>
		<Point>
			<coordinates>-77.15000000000001,43.8333333333333,0</coordinates>
		</Point>
	</Placemark>
	<Placemark>
		<name>MONO CENTRE</name>
		<styleUrl>#default0</styleUrl>
		<Point>
			<coordinates>-80.02444722222219,44.03225,0</coordinates>
		</Point>
	</Placemark>
	<Placemark>
		<name>TORONTO CITY</name>
		<styleUrl>#default0</styleUrl>
		<Point>
			<coordinates>-79.40000000000001,43.6666666666667,0</coordinates>
		</Point>
	</Placemark>
	<Placemark>
		<name>TORONTO CITY CENTRE</name>
		<styleUrl>#default0</styleUrl>
		<Point>
			<coordinates>-79.3961111111111,43.6275,0</coordinates>
		</Point>
	</Placemark>
	<Placemark>
		<name>TORONTO BUTTONVILLE A</name>
		<styleUrl>#default0</styleUrl>
		<Point>
			<coordinates>-79.36861111111109,43.8608333333333,0</coordinates>
		</Point>
	</Placemark>
	<Placemark>
		<name>TORONTO INTL A</name>
		<styleUrl>#default0</styleUrl>
		<Point>
			<coordinates>-79.6305555555556,43.6766666666667,0</coordinates>
		</Point>
	</Placemark>
	<Placemark>
		<name>TRENTON AWOS</name>
		<styleUrl>#default0</styleUrl>
		<Point>
			<coordinates>-77.5188888888889,44.1175,0</coordinates>
		</Point>
	</Placemark>
	<Placemark>
		<name>UXBRIDGE WEST</name>
		<styleUrl>#default0</styleUrl>
		<Point>
			<coordinates>-79.1636166666667,44.0983333333333,0</coordinates>
		</Point>
	</Placemark>
	<Placemark>
		<name>TORONTO NORTH YORK</name>
		<styleUrl>#default0</styleUrl>
		<Point>
			<coordinates>-79.4677883333333,43.78002,0</coordinates>
		</Point>
	</Placemark>
	<Placemark>
		<name>SOUTHERN ONTARIO EMERGENCY PORTABLE WEATHER STATION</name>
		<styleUrl>#default0</styleUrl>
		<Point>
			<coordinates>-79.7833333333333,43.2666666666667,0</coordinates>
		</Point>
	</Placemark>
	<Placemark>
		<name>HALIBURTON 3</name>
		<styleUrl>#default0</styleUrl>
		<Point>
			<coordinates>-78.531115,45.0322483333333,0</coordinates>
		</Point>
	</Placemark>
	<Placemark>
		<name>PETERBOROUGH A</name>
		<styleUrl>#default0</styleUrl>
		<Point>
			<coordinates>-78.3633333333333,44.23,0</coordinates>
		</Point>
	</Placemark>
	<Placemark>
		<name>PETERBOROUGH TRENT U</name>
		<styleUrl>#default0</styleUrl>
		<Point>
			<coordinates>-78.3,44.35,0</coordinates>
		</Point>
	</Placemark>
	<Placemark>
		<name>SONYA SUNDANCE MEADOWS</name>
		<styleUrl>#default0</styleUrl>
		<Point>
			<coordinates>-78.95,44.2166666666667,0</coordinates>
		</Point>
	</Placemark>
	<Placemark>
		<name>TAPLEY</name>
		<styleUrl>#default0</styleUrl>
		<Point>
			<coordinates>-78.50141499999999,44.1705666666667,0</coordinates>
		</Point>
	</Placemark>
	<Placemark>
		<name>BANCROFT AUTO</name>
		<styleUrl>#default0</styleUrl>
		<Point>
			<coordinates>-77.87888888888889,45.0713888888889,0</coordinates>
		</Point>
	</Placemark>
	<Placemark>
		<name>West</name>
		<styleUrl>#default0</styleUrl>
		<Polygon>
			<tessellate>1</tessellate>
			<outerBoundaryIs>
				<LinearRing>
					<coordinates>
						-81.23509736094969,42.66148525361244,0 -81.22904036183331,42.68694910042436,0 -81.08283852583121,42.6875682602435,0 -81.02086676714237,42.71633074752776,0 -80.78009417019831,42.75270433006163,0 -80.62568711692451,42.84559686177385,0 -80.72606494545005,42.90186858023027,0 -80.97081123451235,42.98840631837783,0 -81.16019427362073,43.08542068628058,0 -82.25238379847373,43.37312104622475,0 -82.40076434422184,43.06025698343828,0 -82.4835988107519,42.85623349963759,0 -82.48929564306771,42.71849067316793,0 -82.5804145516456,42.56708266395566,0 -82.62803232057084,42.55745831635658,0 -82.66903191938943,42.53809716325758,0 -82.76200722123521,42.45355619615016,0 -82.9246836699962,42.35524432502816,0 -83.05722212752914,42.32841089998777,0 -83.15523126668491,42.22675099352067,0 -83.12810821240411,42.13083237456986,0 -83.14750637372161,42.03125350568927,0 -83.06062995106258,41.79427442711281,0 -82.7272318483716,41.69892491277433,0 -82.24954655265384,41.6776315271411,0 -81.28370238259845,42.31131435365928,0 -80.96184759373365,42.33753734896643,0 -81.23509736094969,42.66148525361244,0 
					</coordinates>
				</LinearRing>
			</outerBoundaryIs>
		</Polygon>
	</Placemark>
	<Placemark>
		<name>Ottawa</name>
		<styleUrl>#default0</styleUrl>
		<Polygon>
			<tessellate>1</tessellate>
			<outerBoundaryIs>
				<LinearRing>
					<coordinates>
						-75.99561045962588,45.21397678533692,0 -75.93714793159253,45.15723875908632,0 -75.11134238683822,45.17794743010163,0 -74.55560885896294,45.51551095006077,0 -74.37892853385162,45.55601982180779,0 -74.47620368709889,45.59241332243396,0 -74.64446631273688,45.63698023423071,0 -74.69573147938991,45.62903341897512,0 -74.93253970060486,45.64499600361415,0 -75.00308668448672,45.60356363396041,0 -75.12771452352793,45.57776527578879,0 -75.21237176629239,45.58606301712513,0 -75.23996991273455,45.58607326901529,0 -75.34710891264977,45.53826225394599,0 -75.43678405949787,45.52111726786778,0 -75.59114326374889,45.47508080528448,0 -75.67952313731445,45.46561146742644,0 -75.82673049042845,45.35478473956492,0 -76.00392541355653,45.48419083730957,0 -75.99561045962588,45.21397678533692,0 
					</coordinates>
				</LinearRing>
			</outerBoundaryIs>
		</Polygon>
	</Placemark>
	<Placemark>
		<name>Northwest</name>
		<styleUrl>#default0</styleUrl>
		<Polygon>
			<tessellate>1</tessellate>
			<outerBoundaryIs>
				<LinearRing>
					<coordinates>
						-95.15294310364376,52.84093648688022,429.6867053644143 -95.16036438945116,49.39617285610965,348.3619751662462 -95.060484489717,49.36165738118088,348.3619751662462 -94.97822283185131,49.36834221423219,348.5830243988 -94.93364688185198,49.36156473090513,350.3699416469686 -94.87099337048522,49.32893445536411,348.8991634023251 -94.8209206128262,49.32122010486952,348.7808431227293 -94.82095595457967,49.28313980743404,348.0702510248873 -94.80711129184429,49.23871308150399,348.4639881133077 -94.79742365411649,49.19472737216313,319.0835632606569 -94.77531412855988,49.13711693492411,320.9512783317618 -94.7442216380378,49.08672518717804,320.9513250222323 -94.68029232263591,48.88021047083247,292.7505778484654 -94.69270376858397,48.86794531569561,294.0463587091453 -94.68955791673869,48.84037858777281,317.7623815660726 -94.70526690446503,48.82756268958174,318.007403687852 -94.69626787235633,48.80885708529296,332.3171310395834 -94.69102004108902,48.77730291701126,318.9491848430858 -94.66185952636934,48.76499060733107,322.6035671586212 -94.64990076766325,48.75364258337487,317.1535737925497 -94.64541880247435,48.74328775526046,316.917205929471 -94.61478611712789,48.73489697234195,317.576663058439 -94.59238395796108,48.72255751179447,318.7814492426236 -94.58267977482663,48.71663333483679,319.5420209221385 -94.5498365485671,48.71516133185283,337.4856560153264 -94.53795135320235,48.70288454865728,365.6125695896848 -94.50802328235328,48.70028341549202,327.8242491966085 -94.47441303105282,48.69775374081139,327.0218360356042 -94.44751743021277,48.69324217132957,321.7558651325672 -94.43257517353652,48.69766311271288,327.9492759196719 -94.41607505152966,48.71093521273451,324.6405010989366 -94.38240702055421,48.71280447897984,319.7110886488995 -94.3518433968372,48.70287292268652,333.6441716985606 -94.31142411870918,48.70815751749711,332.758087531186 -94.29721839232734,48.70861988261484,317.5180344833866 -94.280051848463,48.70465826412888,317.9935442247107 -94.27042624325759,48.70026213951545,360.8024983115776 -94.25774023734873,48.69185583127972,349.9807709459677 -94.25025227325331,48.67849478993793,318.7976320846844 -94.25252629745455,48.66469360282733,318.0578496833459 -94.25105999339425,48.65433709717882,317.8775512723178 -94.2361411075094,48.65283449101426,318.6564102814369 -94.21973632470413,48.64984931710709,320.4906090499989 -94.19809648425081,48.6503020022011,322.2790289419403 -94.16525842970273,48.64676876111623,319.249725285461 -94.13167075231561,48.64569602123183,320.6393034052127 -94.09820472810108,48.64418177108824,355.3743273583836 -94.0646591234576,48.64557736891094,370.4520475375173 -94.04001950120021,48.64206686895802,335.3983675917074 -94.01393086005125,48.64253287173235,341.7886580591344 -93.99154408910957,48.64150387725386,332.924051993268 -93.96470420856974,48.63850063298635,333.5113910386474 -93.9417023328683,48.6315976081456,368.9121522599588 -93.90508594113739,48.63345806428454,346.9884790354417 -93.84903028935874,48.63031259679635,318.8690543932633 -93.834120198664,48.625827780539,318.2446385592265 -93.82747063543468,48.61496012137876,320.2037029775706 -93.81721907203124,48.59967871957354,346.5609031103022 -93.81057805238342,48.58337457085975,342.0183321455074 -93.80249229673801,48.56856397795151,350.0766469403233 -93.81226846040403,48.54588546194669,339.7167556075481 -93.81231188170334,48.53799119282328,339.9817634476034 -93.81830359750717,48.53307959613814,340.3944512748969 -93.81387889391078,48.52418077789888,340.7968564403037 -93.79750297005153,48.5196752633432,340.7583149544021 -93.78560125869171,48.51469053109917,340.6089816350437 -93.76188177829818,48.51516073003874,369.8104048310965 -93.7388618113594,48.51877264525762,353.3250923768713 -93.71983505815115,48.51754280650492,333.3536844154187 -93.70812108796056,48.51875657595206,335.3586578113527 -93.69201462616535,48.51487143847518,333.2142770147433 -93.67737044984204,48.51704934357157,333.4525827692968 -93.65287452774842,48.51584347410237,352.4021614426687 -93.64152304260266,48.51947064038836,351.3502950906582 -93.63562729447059,48.5281834982755,338.6927631890893 -93.62755204245246,48.53229569912706,333.3551498907194 -93.62315870159254,48.52938083095562,331.9975619310134 -93.61695207813166,48.52380014398274,335.7605338883558 -93.60852975818753,48.52209328044443,334.8039898302447 -93.59789413544804,48.52741643464561,333.9296827126416 -93.58836973006773,48.53104486900512,336.5716916913617 -93.58030747582853,48.52690911519923,332.7218501057653 -93.56425250356401,48.52932566878063,351.6630373564502 -93.54919471183884,48.52953910347889,342.4243644283828 -93.53129887444572,48.53267133009628,357.5345323313427 -93.51370146974385,48.53579145901742,357.9252812551218 -93.49927098402854,48.54157448974576,337.3019914328731 -93.47843795625168,48.54468963415487,352.2840636236067 -93.4655531045251,48.54684245696448,346.5226760583001 -93.45847666593603,48.55580108824396,337.387343057102 -93.45818888377342,48.5657436237839,357.5627053795665 -93.46108628893379,48.57278264239884,357.3684983152429 -93.46639693190589,48.5876006775841,338.9427180455399 -93.4656305857129,48.59194570868501,337.9189766210732 -93.45280669997095,48.59339478469852,345.0871001818691 -93.43962070736775,48.5943569854873,352.5824226258096 -93.43153367344969,48.59775116910127,339.4464040449249 -93.42565655953668,48.60211356174384,336.5479692628056 -93.41611521091698,48.60574533151276,335.9414755739622 -93.40803940292822,48.6093774998524,335.6244723306081 -93.40253721906768,48.60937363618195,335.5242580608873 -93.39924430762134,48.60524872125941,335.6220206317619 -93.39117642998427,48.60451477911975,335.5732106941165 -93.38200273380961,48.60596179623084,335.4945492364107 -93.37136391287154,48.60619413890753,335.5499235585313 -93.3662145164936,48.61103920940046,335.4504389234295 -93.36180340607199,48.61394487989988,335.4574858699372 -93.35557291195366,48.61151278063074,335.647198057318 -93.35040039247316,48.62290601378541,335.5991659867289 -93.34634918463534,48.62726712292393,335.7173758459441 -93.30850190675716,48.6337690681036,335.2570681143603 -93.26183447486301,48.64244470143809,335.89399148865 -93.22403397222232,48.64267367163323,335.5154545567805 -93.20825158885398,48.64266468208214,335.4094957068924 -93.18002826257259,48.62542501618459,335.4582476298068 -93.17563084854116,48.62299584826208,335.5768189062241 -93.09117704273402,48.62773951882393,335.4830753160833 -92.9829229657003,48.62379710063346,335.757238258373 -92.95430371870857,48.63106534374517,335.2050075566003 -92.94916810339832,48.63009358768875,335.1600121023602 -92.94882288353141,48.60875541641961,335.4033918300809 -92.92755568039581,48.60632011595167,335.6022887891169 -92.91038274632388,48.59685257974403,357.9536091224662 -92.89206246543422,48.59417146377834,357.930074134823 -92.72652629777056,48.5391323328093,357.9246728926513 -92.65899645767718,48.546628073426,349.6988230478326 -92.63299009808615,48.5436629912918,357.8946491900755 -92.62840147632382,48.52012683003559,358.0073309188163 -92.62536839509745,48.51841168133491,333.0100319279244 -92.62606737860629,48.51463321758511,337.18661211676 -92.62604099778655,48.51195583607548,347.6331441636294 -92.63102819346516,48.50880815126308,345.4910040427648 -92.6317459748503,48.50613408643287,341.8616101430277 -92.62628567511992,48.50299070764021,339.7101449386064 -92.63055196138366,48.50047172574,341.7650897876437 -92.63837274595353,48.4998389273205,346.8936543200675 -92.64786879225839,48.49983262949646,346.9198950066771 -92.65474759459151,48.50187260618272,349.8617958001644 -92.66163647521896,48.49573211632911,345.6868574494308 -92.68395767428295,48.49665510829664,346.1050676227014 -92.69751086335434,48.49443612799059,341.8949507787764 -92.70009944543457,48.48562223026165,342.4658921012472 -92.70910565267801,48.47333468334113,340.429790115655 -92.70912347185026,48.47049585685541,335.8421532428858 -92.7126519026454,48.46325493792543,338.9308691896303 -92.68770890842622,48.44359937762047,332.9427591806144 -92.66396713145519,48.44000531101062,332.8428035977436 -92.6570279848014,48.43658860475199,348.2121671333248 -92.57618059029585,48.44021218326068,332.8454114398215 -92.53703487795062,48.44792107163797,332.949312515271 -92.50691832793075,48.44808031746291,340.4763737871641 -92.48913620694201,48.43077600321746,346.0258363969627 -92.48154956714956,48.42872676438805,353.4524587161884 -92.48084076416943,48.42590424111495,340.6082160131839 -92.47467758788351,48.41882597544166,339.4209178709412 -92.45523829037971,48.41347630986103,332.9343838679434 -92.45548320795837,48.40183376241691,336.9715819188947 -92.47633661212083,48.37256692804974,333.939362121768 -92.46946291696055,48.352116807309,338.3560540618884 -92.45265359261987,48.32835999290801,333.7771577371284 -92.44130082344039,48.31580746453054,361.5072715262597 -92.43727558399992,48.30979927733717,339.0984278741637 -92.43160886298224,48.30526231741948,354.7883648465308 -92.42853292661296,48.30588407996368,350.7737343702569 -92.42356517864333,48.30304394875098,346.2642313069022 -92.41906595577539,48.29814969858042,337.9650917454716 -92.41481127806129,48.29500263136257,338.7577547366366 -92.40133575121781,48.27109377434945,340.7627505066496 -92.3930654661222,48.25992720064744,344.2443439858864 -92.39288407354927,48.25785883872305,344.9550686207222 -92.38470845309696,48.24418351710177,339.6115400464653 -92.3845310089776,48.24195398039614,343.2725110812577 -92.38344218436924,48.23983898623704,338.6624552185765 -92.38026378824956,48.23627000202435,342.9861888073451 -92.37808490639264,48.23530241539109,342.805796268442 -92.37908319975189,48.23427403355262,341.2174462063772 -92.3779936002871,48.23312479325327,340.9840031670578 -92.37881177431434,48.23076779393203,343.9349005811341 -92.37744858016197,48.22937397341984,339.7477730878919 -92.37572445692024,48.22822605495234,341.4863606220338 -92.37536070717299,48.22634982202744,340.2123949114264 -92.3732759663261,48.22466077384072,344.1698849407135 -92.37227606010586,48.22344886744598,342.2775853274402 -92.37083039467591,48.22400105326675,348.5906848273908 -92.36964790612006,48.22036921211064,345.3380505419588 -92.3669187513963,48.22199473722081,340.8989034337081 -92.36837663753261,48.22363370937274,345.2154205798711 -92.36683112467617,48.22417537535847,343.4134538154011 -92.36292879916108,48.22278403364995,343.5123663652759 -92.36092381238704,48.22386725718719,339.7300825970323 -92.35965645815476,48.22556309403552,341.7917120473657 -92.35484384778114,48.22864661357274,341.9946261990198 -92.35257035482508,48.23027830586084,341.0159416429241 -92.34940523518415,48.23106581511205,342.7723678339549 -92.34640472705566,48.23160910915612,339.8899402214437 -92.34359114676386,48.23203223935484,340.7972483884475 -92.34177703031018,48.23179015554261,341.7082639245091 -92.34068516837044,48.23366478504916,340.9967421749109 -92.33825766742243,48.23529555092859,351.50096126203 -92.33678310375208,48.23481301542025,342.2569643202762 -92.33550351544388,48.23535755099061,339.1996984448679 -92.33414292885811,48.23426830304386,339.6403452190087 -92.33233290027182,48.23396531279171,341.7459890154053 -92.33033142467728,48.23475113162723,340.7130939429627 -92.32692174325679,48.23686317974235,352.9412341106595 -92.32047524079678,48.23782822312784,351.7674010855852 -92.31500987947673,48.24044010149924,351.7885141569749 -92.28077681883903,48.24426334457058,352.0947115165854 -92.27005239467009,48.24807266955827,351.7728595941388 -92.27349809147545,48.25656884955723,351.7690122045972 -92.29005919737658,48.26526791026838,355.5748065747749 -92.29458115363425,48.2715149183477,353.5101187607027 -92.29301216702464,48.27638280933607,354.9813487931173 -92.29394350501721,48.27656858244652,354.0415419678718 -92.29519700425364,48.2763085289423,359.0918528376249 -92.3013992186322,48.28815028627445,361.6887893613779 -92.29428088788273,48.30621466404922,358.3661360985782 -92.30589874634927,48.31596445742587,358.4011858686679 -92.30437010146686,48.32269347648929,358.3815349113744 -92.29516451387371,48.32375273260755,358.350208215769 -92.28887393432333,48.34278436256736,361.9614108150645 -92.26252168807089,48.35488221228264,358.4124206766352 -92.22185157886467,48.34875853407323,358.562831685046 -92.21968213890679,48.34786001385596,362.589059904407 -92.21912108841045,48.34674552277798,365.08382028443 -92.21697274800552,48.3451041390977,358.3915506970117 -92.20684307920452,48.34557161301055,364.3204907365452 -92.20654481869194,48.34714875113145,359.8058737347912 -92.2074752936652,48.34779544862934,360.5536506919405 -92.20348799728636,48.35168398616204,360.3181959660126 -92.19456861633259,48.35046887495584,358.4146817926346 -92.19434113804162,48.34879959971173,358.3991685885397 -92.17855263458637,48.35189912469424,358.9328568642358 -92.17831524567963,48.35642877342378,358.3911201105761 -92.16211597797714,48.36329646770388,358.3858297923999 -92.14465008528755,48.36586893064788,358.3724698444373 -92.14345563366885,48.35620523441678,358.8207574401421 -92.0831561207778,48.35368175698034,359.4372549141603 -92.07816576472368,48.35804893514903,359.5665154209996 -92.06702218505836,48.3596308166901,361.7929638148011 -92.05572797547022,48.35928709731629,358.3739278008819 -92.04835032429546,48.34866119724858,358.3871444789132 -92.04453949635797,48.3465239978926,361.2041484494264 -92.04738635145759,48.34383817863171,358.3824344834617 -92.04663398347775,48.33498954377943,358.3820242580605 -92.03835116177612,48.33308662277702,358.3726820020869 -92.03146552586689,48.32590276738895,358.3587117493416 -92.00082229550944,48.32085237175978,358.396733568398 -92.01275169279654,48.29737300553467,360.1530703479914 -92.00643938793043,48.26649316506117,354.2277681616933 -91.98161995984729,48.25736368520226,352.7608158732535 -91.97377600534904,48.24204564949615,352.5301818673072 -91.96066298154147,48.25471552845848,413.0682263455098 -91.9470188122913,48.24601504750989,447.6272025227202 -91.95846377706894,48.23524012583064,391.5661571843093 -91.95034086003815,48.23272363110262,410.6264312743618 -91.94092035603376,48.22988204446656,429.6867053644143 -91.9374863771625,48.2340806049123,429.6867053644143 -91.92993754778615,48.23565902374376,429.6867053644143 -91.91956486014628,48.23738907519454,429.6867053644143 -91.91362279852345,48.2390947188098,429.6867053644143 -91.91295873472477,48.23842278108809,429.6867053644143 -91.91057123034034,48.23810979572623,429.6867053644143 -91.90756813395129,48.23840021803541,429.6867053644143 -91.90583357958984,48.23714667960024,429.6867053644143 -91.90384898227123,48.23710665824452,429.6867053644143 -91.89300706174247,48.23790691733414,429.6867053644143 -91.88413038940395,48.22774559882944,429.6867053644143 -91.86723639205292,48.21927294208186,429.6867053644143 -91.86387569671258,48.20701061574336,429.6867053644143 -91.84615658542675,48.20864620254861,429.6867053644143 -91.83547899259283,48.21024253179813,429.6867053644143 -91.83181245781279,48.20938926639144,429.6867053644143 -91.81529757741261,48.21174228039175,429.6867053644143 -91.81390381457976,48.20827227611377,429.6867053644143 -91.80699051715,48.20574747131506,429.6867053644143 -91.79777427203472,48.20311492582886,429.6867053644143 -91.79064745585781,48.20231431717592,429.6867053644143 -91.78817337341823,48.19672165158048,429.6867053644143 -91.78688968983519,48.19643655365951,429.6867053644143 -91.78038939387507,48.20056059623032,429.6867053644143 -91.76460938144463,48.20082232277407,429.6867053644143 -91.76017055821661,48.20471403115778,429.6867053644143 -91.76011335385472,48.20477958049111,429.6867053644143 -91.75517999828334,48.20569375307024,429.6867053644143 -91.75331263060052,48.20142685814417,429.6867053644143 -91.74826307707818,48.19876642304333,429.6867053644143 -91.74119086351031,48.1993949439942,429.6867053644143 -91.74180496629415,48.20453602711454,429.6867053644143 -91.73677146821792,48.20381878679176,429.6867053644143 -91.7153296263722,48.1991825065589,429.6867053644143 -91.71026578294372,48.19398056575428,429.6867053644143 -91.7120916146921,48.18695991598143,429.6867053644143 -91.72082805792083,48.18008684586133,429.6867053644143 -91.72308950591534,48.17314744801149,429.6867053644143 -91.72387032452427,48.17033267250542,429.6867053644143 -91.72204371684317,48.16898744311526,429.6867053644143 -91.71700941345735,48.17184890866262,429.6867053644143 -91.7089717048551,48.17281865597993,429.6867053644143 -91.70503629319556,48.17028474143139,429.6867053644143 -91.70500043277616,48.16089352676003,429.6867053644143 -91.7078788117275,48.15312825447133,429.6867053644143 -91.70260423556188,48.14507065642609,429.6867053644143 -91.69860704827725,48.14459076599832,429.6867053644143 -91.69834406808451,48.14050140212225,429.6867053644143 -91.69984251948743,48.13247698274552,429.6867053644143 -91.70352466321941,48.12495093271824,429.6867053644143 -91.70771273387572,48.12288378638596,429.6867053644143 -91.70938427546905,48.11883056235664,429.6867053644143 -91.71222591751987,48.1153824280984,429.6867053644143 -91.70301890802494,48.11333481055497,429.6867053644143 -91.69481083534349,48.11610190287503,429.6867053644143 -91.69107472660534,48.11833400580548,429.6867053644143 -91.69189275889032,48.11980535374861,429.6867053644143 -91.68182932000218,48.12246443199484,429.6867053644143 -91.68330900360604,48.11753905232056,429.6867053644143 -91.68662748359586,48.11199695697834,429.6867053644143 -91.68139547707361,48.10948394103907,429.6867053644143 -91.67848056350559,48.10737656985643,429.6867053644143 -91.67556709760376,48.10784676947138,429.6867053644143 -91.66975144670275,48.10854649728787,429.6867053644143 -91.6649975836434,48.10731942560748,429.6867053644143 -91.66217391708857,48.10991100976109,429.6867053644143 -91.66176784254856,48.11165657649247,429.6867053644143 -91.65702240473148,48.11308473543473,429.6867053644143 -91.65685377455743,48.1131185495925,429.6867053644143 -91.6523761792165,48.11413402480132,429.6867053644143 -91.65110979731766,48.11281574212975,429.6867053644143 -91.65288493928179,48.10970252194592,429.6867053644143 -91.64734488645743,48.10497405774188,429.6867053644143 -91.63921527857397,48.09715352170104,429.6867053644143 -91.61447725690094,48.10224840046337,429.6867053644143 -91.58894433295413,48.10264025096261,429.6867053644143 -91.57550647969234,48.10660244722672,429.6867053644143 -91.55946387836543,48.10842326678796,429.6867053644143 -91.55290451024628,48.10312949259986,429.6867053644143 -91.5688934738338,48.09352462494087,429.6867053644143 -91.57462467301691,48.06651515689724,429.6867053644143 -91.57243213325408,48.05680872737113,429.6867053644143 -91.57510762925227,48.0488738144798,429.6867053644143 -91.56733985858976,48.04407446013214,429.6867053644143 -91.5414866080213,48.05407103301958,429.6867053644143 -91.48925612608558,48.0683740891993,429.6867053644143 -91.46456510033083,48.0672650990453,429.6867053644143 -91.45018861697818,48.06900878217469,429.6867053644143 -91.44620415434569,48.067866115658,429.6867053644143 -91.44665188054388,48.0629164133016,429.6867053644143 -91.43737945741849,48.05251604690768,429.6867053644143 -91.43805982838983,48.05031881792726,429.6867053644143 -91.42905950725599,48.04867299414316,429.6867053644143 -91.41807607211902,48.05176393216742,429.6867053644143 -91.4062061277051,48.05478873798988,429.6867053644143 -91.39092045202324,48.05740719348487,429.6867053644143 -91.3708979931434,48.06958087077185,429.6867053644143 -91.3646114254434,48.06720885802176,429.6867053644143 -91.35016349239923,48.0718679271243,429.6867053644143 -91.33987632357302,48.07362688700558,429.6867053644143 -91.33654430230935,48.07109217056702,429.6867053644143 -91.33600361890525,48.06928688313746,429.6867053644143 -91.33257225248539,48.07026934296447,429.6867053644143 -91.32997169963836,48.06941236530891,429.6867053644143 -91.32788745079397,48.07106602762752,429.6867053644143 -91.32429791455088,48.07278343940862,429.6867053644143 -91.31477497018882,48.0737436875088,429.6867053644143 -91.30953114828267,48.07272131397043,429.6867053644143 -91.29862378291833,48.0735398673403,429.6867053644143 -91.28991444671526,48.07387281942359,429.6867053644143 -91.27645215535721,48.0787754299788,429.6867053644143 -91.26638162778248,48.07871070744859,429.6867053644143 -91.24980777911652,48.08413936391938,429.6867053644143 -91.2350858825901,48.09613706508606,429.6867053644143 -91.22870421632766,48.09914202276018,429.6867053644143 -91.21498858108515,48.10261806845477,429.6867053644143 -91.1900635005653,48.12499364390446,429.6867053644143 -91.18339683616557,48.12213583063813,429.6867053644143 -91.17439432921547,48.12714023820048,429.6867053644143 -91.15696148883879,48.14033278470475,429.6867053644143 -91.13745634620831,48.14900048880685,429.6867053644143 -91.13796318228465,48.15192361316902,429.6867053644143 -91.14017702009916,48.15202879640498,429.6867053644143 -91.14181685347694,48.15432810385581,429.6867053644143 -91.12135289524686,48.16039548538892,429.6867053644143 -91.11484783080741,48.16615994667902,429.6867053644143 -91.09225198721956,48.17334886638881,429.6867053644143 -91.0878430341053,48.17829264522889,429.6867053644143 -91.08236993178149,48.18114841573735,429.6867053644143 -91.07917770602437,48.17983406047173,429.6867053644143 -91.06607813828597,48.18079698490834,429.6867053644143 -91.06197088277486,48.18523125560209,429.6867053644143 -91.05912414128431,48.18568207018008,429.6867053644143 -91.05465968468603,48.1883066215432,429.6867053644143 -91.04905626229987,48.18897510801299,429.6867053644143 -91.0362202702411,48.19046731663147,429.6867053644143 -91.03318740755742,48.18910119808012,429.6867053644143 -91.02830606536287,48.18925423569003,429.6867053644143 -91.02357026886919,48.19069408692485,429.6867053644143 -91.02148405331982,48.19302746247274,429.6867053644143 -91.01720349669009,48.19522659716393,429.6867053644143 -91.00971366466545,48.19938296179498,429.6867053644143 -91.0029389348193,48.20055843730524,429.6867053644143 -91.00372975188422,48.20352606012999,429.6867053644143 -90.97636023495309,48.22009468698169,429.6867053644143 -90.92686262629515,48.22957875768034,429.6867053644143 -90.91582969048393,48.23058100759426,429.6867053644143 -90.90585612191033,48.23750794060552,429.6867053644143 -90.88513696473154,48.24582035736665,429.6867053644143 -90.88165818158201,48.2404036709305,429.6867053644143 -90.87481969174746,48.23777811024971,429.6867053644143 -90.8669835789122,48.23813483726626,429.6867053644143 -90.84822420220202,48.24416732300813,429.6867053644143 -90.84291870019682,48.24269512193619,429.6867053644143 -90.83998077555839,48.23944657678495,429.6867053644143 -90.83853648810967,48.23277558155613,429.6867053644143 -90.83966060624685,48.22778416363865,429.6867053644143 -90.83758359192265,48.22658213948846,429.6867053644143 -90.83396731961714,48.18647357538953,429.6867053644143 -90.83629385405922,48.17717239795486,429.6867053644143 -90.83099320635327,48.17374124778404,429.6867053644143 -90.82371740326015,48.17902080872597,429.6867053644143 -90.82535733681281,48.18289059065621,429.6867053644143 -90.82124560438768,48.18421422513617,429.6867053644143 -90.81715080726569,48.17948958971026,429.6867053644143 -90.80957825840372,48.17993379704301,429.6867053644143 -90.80366252673076,48.17804834084527,429.6867053644143 -90.80317557967103,48.17176333425805,429.6867053644143 -90.80230484227528,48.17004778832193,429.6867053644143 -90.80020519173988,48.16396186147763,429.6867053644143 -90.79510870670073,48.15964427892136,429.6867053644143 -90.79360518733061,48.16098635719573,429.6867053644143 -90.78918454427404,48.15963718581617,429.6867053644143 -90.78543261715606,48.16182149238576,429.6867053644143 -90.78155688054427,48.16414113806445,429.6867053644143 -90.77732641521487,48.16264894917732,429.6867053644143 -90.77561507821254,48.16062546316324,429.6867053644143 -90.77799425837027,48.14991890401729,429.6867053644143 -90.77955451193735,48.14691513442884,429.6867053644143 -90.78459372293767,48.14582100333003,429.6867053644143 -90.78887230962543,48.143419077696,429.6867053644143 -90.79461071061814,48.14044443888558,429.6867053644143 -90.79827507709182,48.13688427654149,429.6867053644143 -90.79416822562497,48.13513905735798,429.6867053644143 -90.79059156115994,48.13589868529031,429.6867053644143 -90.78699349079228,48.1355647923819,429.6867053644143 -90.78236184258898,48.13560811882277,429.6867053644143 -90.78271622197553,48.13259414621132,429.6867053644143 -90.78705972773551,48.1330061442539,429.6867053644143 -90.7897163835156,48.1302237337347,429.6867053644143 -90.78683215908175,48.12769908101659,429.6867053644143 -90.78391574781533,48.12801183075939,429.6867053644143 -90.78321050522833,48.12654216557147,429.6867053644143 -90.78022806162716,48.12522356470512,429.6867053644143 -90.77576568455665,48.12293553002275,429.6867053644143 -90.77420746016388,48.11846481803484,429.6867053644143 -90.76857048586827,48.11635500962426,429.6867053644143 -90.76693780866108,48.11069653438265,429.6867053644143 -90.76182582329152,48.09904617516227,429.6867053644143 -90.75119299572367,48.0917474716939,429.6867053644143 -90.6868580486635,48.09964326808179,429.6867053644143 -90.62584435073903,48.11238062904254,429.6867053644143 -90.59020186815846,48.1183647429156,429.6867053644143 -90.58087148927397,48.12188167799572,429.6867053644143 -90.56324042461316,48.12321479017418,429.6867053644143 -90.55409104845197,48.11677419677237,429.6867053644143 -90.56943866677783,48.10538809135078,429.6867053644143 -90.55379094863883,48.09452740071553,429.6867053644143 -90.51528451633629,48.09875945011733,429.6867053644143 -90.48136122892625,48.10065164025735,429.6867053644143 -90.467182165458,48.10801537564441,429.6867053644143 -90.44611518141001,48.10255056451688,429.6867053644143 -90.43537140586677,48.09883266995139,429.6867053644143 -90.40213476635041,48.10388869914331,429.6867053644143 -90.38726873144313,48.0977980147609,429.6867053644143 -90.37454572567491,48.09120257246154,429.6867053644143 -90.37155340408141,48.09414508325774,429.6867053644143 -90.35046698050104,48.09387706231914,429.6867053644143 -90.33675443007202,48.09673865080642,429.6867053644143 -90.32887750055067,48.1022096784674,429.6867053644143 -90.30825167584554,48.10531936284535,429.6867053644143 -90.29356467508157,48.09992268397023,429.6867053644143 -90.27999877534488,48.10096797887393,429.6867053644143 -90.24349758735337,48.10496370073454,429.6867053644143 -90.21586911932954,48.10732864648553,429.6867053644143 -90.17955906154042,48.11092292797928,429.6867053644143 -90.14453312356873,48.11192196581389,429.6867053644143 -90.12926730311183,48.10987915500755,429.6867053644143 -90.11941235188924,48.10437958851116,429.6867053644143 -90.09157341655613,48.10440472069199,429.6867053644143 -90.0565727550543,48.09623980229321,429.6867053644143 -90.03828287397755,48.08947415477615,429.6867053644143 -90.02130454571454,48.08082061830762,429.6867053644143 -90.01405514852212,48.06720732966165,429.6867053644143 -90.00559775242935,48.0647347768916,429.6867053644143 -89.99462659708834,48.04848182571567,429.6867053644143 -89.99284728971499,48.02919828619826,429.6867053644143 -89.98667529700931,48.02600809873683,429.6867053644143 -89.97434357821153,48.02300590570479,429.6867053644143 -89.9678670370995,48.0148870598572,429.6867053644143 -89.95721414390205,48.01290880852186,429.6867053644143 -89.95097932044375,48.01167338203445,429.6867053644143 -89.95076684147199,48.01524501897696,429.6867053644143 -89.94159921653535,48.01488449880549,429.6867053644143 -89.93554849795086,48.01556974414966,429.6867053644143 -89.93235254219755,48.01155179602736,429.6867053644143 -89.92857423955172,48.00756119492086,429.6867053644143 -89.92626710325949,48.00429411557478,429.6867053644143 -89.92637275473001,48.00131662408081,429.6867053644143 -89.92152088816286,47.9996127117298,429.6867053644143 -89.92149562896418,47.99680338082594,429.6867053644143 -89.91500117716852,47.99602547212782,429.6867053644143 -89.91070925490169,47.99323496691315,429.6867053644143 -89.90343215924878,47.99161513802293,429.6867053644143 -89.89739740136963,47.98785267047141,429.6867053644143 -89.89042883253877,47.98761197033631,429.6867053644143 -89.87777944778043,47.98715239836638,429.6867053644143 -89.87149582076587,47.98585203644897,429.6867053644143 -89.86723112910072,47.98949332346308,429.6867053644143 -89.86476257115848,47.99005111136791,429.6867053644143 -89.85963955909602,47.99090932505904,429.6867053644143 -89.85377536498528,47.99174011519387,429.6867053644143 -89.84809605056765,47.99232444981362,429.6867053644143 -89.84589370962459,47.99358809265132,429.6867053644143 -89.84563464898861,47.99499024793352,429.6867053644143 -89.84421323670087,47.99621695885824,429.6867053644143 -89.84348151196568,47.99746510161572,429.6867053644143 -89.8422307882383,47.99732027962677,429.6867053644143 -89.84219530322427,48.00173388343006,429.6867053644143 -89.84436380077913,48.00271233155727,429.6867053644143 -89.84451210894709,48.00332755073608,429.6867053644143 -89.84300952688262,48.00356983124616,429.6867053644143 -89.84048313879536,48.00275807104196,429.6867053644143 -89.83817876179562,48.00230369128842,429.6867053644143 -89.83601595310812,48.00058937120549,429.6867053644143 -89.83330241936305,47.99943179948612,429.6867053644143 -89.83084928945247,47.99983094623285,429.6867053644143 -89.82895201438041,48.0030152675609,429.6867053644143 -89.82857206956973,48.00447275313874,429.6867053644143 -89.8289673727848,48.00505303290308,429.6867053644143 -89.82720834141264,48.00625316758438,429.6867053644143 -89.82525126712191,48.00672176736753,429.6867053644143 -89.82441478816352,48.00831201039404,429.6867053644143 -89.82268653648823,48.0092894573259,429.6867053644143 -89.82235616397425,48.01035821322117,429.6867053644143 -89.82185109782485,48.01081943513886,429.6867053644143 -89.82303178898145,48.01134923419029,429.6867053644143 -89.8236843565473,48.01148434636664,429.6867053644143 -89.82103501841688,48.01296148738993,429.6867053644143 -89.82092611768975,48.01431872094716,429.6867053644143 -89.82002028848164,48.01542917034926,429.6867053644143 -89.81888848400099,48.01556648857018,429.6867053644143 -89.81631034486391,48.01616134450578,429.6867053644143 -89.81353672398873,48.01635265221734,429.6867053644143 -89.81160178562907,48.01680023160754,429.6867053644143 -89.8099486219061,48.01670264825817,429.6867053644143 -89.80765218388697,48.01767708246545,429.6867053644143 -89.80722157259852,48.01629469648994,429.6867053644143 -89.80617697964794,48.01430448232205,429.6867053644143 -89.80180711945462,48.01424054074465,429.6867053644143 -89.79958325391476,48.01491792176061,429.6867053644143 -89.79695007034759,48.01499067828676,429.6867053644143 -89.79587110827079,48.0155328958183,429.6867053644143 -89.79614033221152,48.01635734251136,429.6867053644143 -89.7954253172437,48.01693098259544,429.6867053644143 -89.79477183689357,48.01769561242173,429.6867053644143 -89.79309650472574,48.01801248284239,429.6867053644143 -89.79150736851402,48.01843733323389,429.6867053644143 -89.78903300393087,48.0183630443855,429.6867053644143 -89.78640519625924,48.01786976837152,429.6867053644143 -89.78361991458696,48.01806154847986,429.6867053644143 -89.78207421132771,48.01803242800468,429.6867053644143 -89.78106692004944,48.01849831927912,429.6867053644143 -89.77886345766497,48.01864901748385,429.6867053644143 -89.77561884618449,48.02266068044307,429.6867053644143 -89.77472551640942,48.0228061220711,429.6867053644143 -89.77390562521971,48.02135416170591,429.6867053644143 -89.77388656107078,48.02065115269596,429.6867053644143 -89.77009257387691,48.02181443182921,429.6867053644143 -89.76624524718528,48.02281335614239,429.6867053644143 -89.76206882244152,48.02280725577291,429.6867053644143 -89.75877838441104,48.02290397805341,429.6867053644143 -89.75535841566081,48.0233737574328,429.6867053644143 -89.75352793675047,48.02242830883792,429.6867053644143 -89.7497666220515,48.02360306404727,429.6867053644143 -89.74704958890015,48.02273963985263,429.6867053644143 -89.74557455254649,48.02204709866074,429.6867053644143 -89.74457257003586,48.02242315224495,429.6867053644143 -89.74371794714067,48.02155313443586,429.6867053644143 -89.74307181503609,48.02041895372458,429.6867053644143 -89.74153917206417,48.02014831085889,429.6867053644143 -89.73854502134704,48.02068689858292,429.6867053644143 -89.7362431038872,48.02166738342147,429.6867053644143 -89.73390357547552,48.02183712989969,429.6867053644143 -89.73283304762242,48.02109481641487,429.6867053644143 -89.73220754616452,48.0203772345798,429.6867053644143 -89.73218030384669,48.01970388035906,429.6867053644143 -89.73247937217376,48.01930476008414,429.6867053644143 -89.73170894929351,48.01905241105004,429.6867053644143 -89.72941311471816,48.01926898978863,429.6867053644143 -89.72677414830918,48.01899048967987,429.6867053644143 -89.72430843050203,48.01916485778071,429.6867053644143 -89.72356817282048,48.01947147135278,429.6867053644143 -89.72416601834995,48.02046562069037,429.6867053644143 -89.72349893471306,48.02080752288848,429.6867053644143 -89.72042925541997,48.01963096630475,429.6867053644143 -89.71977190087671,48.01811425214757,429.6867053644143 -89.72091084212056,48.0174360043636,429.6867053644143 -89.72321062153262,48.01754540343662,429.6867053644143 -89.7244560183394,48.01633254907225,429.6867053644143 -89.72399129480871,48.01481959601588,429.6867053644143 -89.72368285702308,48.01367455937805,429.6867053644143 -89.72070945744034,48.01442149156835,429.6867053644143 -89.71958483455366,48.01603998158425,429.6867053644143 -89.71876564498416,48.0170582878371,429.6867053644143 -89.71653523994044,48.01715518778617,429.6867053644143 -89.7165446694035,48.01560548390406,429.6867053644143 -89.71712944629409,48.01393760826687,429.6867053644143 -89.71685375826998,48.01016438134355,429.6867053644143 -89.71472842353782,48.00935982314578,429.6867053644143 -89.71154429883333,48.01026376926386,429.6867053644143 -89.70848239796452,48.01042734250295,429.6867053644143 -89.70527775655037,48.00761230746228,429.6867053644143 -89.70187719464792,48.00670477418304,429.6867053644143 -89.69642408021068,48.00832186311973,429.6867053644143 -89.69066582679716,48.01060886465713,429.6867053644143 -89.68607473319793,48.01064780921725,429.6867053644143 -89.68068072218765,48.01025120115831,429.6867053644143 -89.67387339907761,48.01171320663087,429.6867053644143 -89.66960290756467,48.00914722192492,429.6867053644143 -89.66638186216593,48.0074064674653,429.6867053644143 -89.66347839927744,48.00923865584746,429.6867053644143 -89.66192189608056,48.0109233759784,429.6867053644143 -89.65872209924495,48.010304900766,429.6867053644143 -89.65551249897285,48.00859066057641,429.6867053644143 -89.65364446724975,48.00538490656172,429.6867053644143 -89.64914041217202,48.00393739110434,429.6867053644143 -89.64631074940719,48.00568580760466,429.6867053644143 -89.64353147868266,48.00675730596502,429.6867053644143 -89.64005224394928,48.00450941543144,429.6867053644143 -89.63801110546493,48.0039684772515,429.6867053644143 -89.63668808121538,48.00573931846841,429.6867053644143 -89.63736470681161,48.00772551743227,429.6867053644143 -89.63842839985642,48.00917449707503,429.6867053644143 -89.63157364236588,48.01026122415087,429.6867053644143 -89.62691810225286,48.0117517533414,429.6867053644143 -89.62186012008328,48.01156199384197,429.6867053644143 -89.61946361490023,48.01099668475103,429.6867053644143 -89.61700025456925,48.0125089464387,429.6867053644143 -89.61358088203582,48.01603360699446,429.6867053644143 -89.61125098115284,48.01821736794984,429.6867053644143 -89.60894046873204,48.01727547137144,429.6867053644143 -89.60951159346116,48.01355689966448,429.6867053644143 -89.60955947478732,48.01105956244694,429.6867053644143 -89.60891917305315,48.00849533421476,429.6867053644143 -89.60729608774061,48.00648751420745,429.6867053644143 -89.60306872050506,48.00614901103148,429.6867053644143 -89.60070508319588,48.00527521709892,429.6867053644143 -89.59779952227497,48.00498817809846,429.6867053644143 -89.59521006885451,48.00448603181013,429.6867053644143 -89.59235642522633,48.00381070335574,429.6867053644143 -89.59068901745687,48.00252628058249,429.6867053644143 -89.58799002785155,48.00202389579166,429.6867053644143 -89.5851704573851,48.0011713560046,429.6867053644143 -89.58461885578869,47.99852331229182,429.6867053644143 -89.58241482340641,47.99702031239962,429.6867053644143 -89.58017525945742,47.99621071358435,429.6867053644143 -89.57624865144658,47.99722862638449,429.6867053644143 -89.57192570049587,47.99816899002539,429.6867053644143 -89.56754444022731,48.00028422526309,429.6867053644143 -89.56463753018784,48.00278054106905,429.6867053644143 -89.48762143161036,48.01739735312114,429.6867053644143 -89.33721058327771,47.9729603890227,429.6867053644143 -88.67719388277132,48.24545065136189,429.6867053644143 -88.36821274585445,48.30662888013647,429.6867053644143 -85.52629585025633,47.15797387753163,429.6867053644143 -85.00197761491114,47.94971783256795,429.6867053644143 -85.05543268853154,48.50502421854519,429.6867053644143 -84.82562614322987,49.64476053401561,429.6867053644143 -83.8233152519027,51.35858473676074,429.6867053644143 -82.1995053250827,52.98482923953345,429.6867053644143 -82.20456859463448,53.14477830507354,429.6867053644143 -81.74784130790965,53.41761078421499,429.6867053644143 -81.95944411126085,55.09389795879746,429.6867053644143 -82.30990104319889,55.33298985962912,429.6867053644143 -84.51090304226094,55.77468396592829,429.6867053644143 -88.35233806861228,56.73084573786466,429.6867053644143 -88.91497433282861,56.92642313924382,429.6867053644143 -88.9992137202474,56.83100486059241,429.6867053644143 -93.62915288115506,53.72908801133092,429.6867053644143 -95.15294310364376,52.84093648688022,429.6867053644143 
					</coordinates>
				</LinearRing>
			</outerBoundaryIs>
		</Polygon>
	</Placemark>
	<Placemark>
		<name>Essa</name>
		<styleUrl>#default0</styleUrl>
		<Polygon>
			<tessellate>1</tessellate>
			<outerBoundaryIs>
				<LinearRing>
					<coordinates>
						-79.6979741126525,43.98542158012336,0 -79.49927244939632,44.01648169967482,0 -79.33376004613831,44.07452088167313,0 -79.21357618676574,44.02541269070997,0 -78.77999317717044,44.19742793106854,0 -78.35460499476517,44.61203671535623,0 -78.16074907333984,45.18607587033183,0 -78.10238896913552,45.30508280506264,0 -77.46900884183879,45.69669822611754,0 -77.30457826585967,45.80463462432547,0 -77.19373477923104,45.8752699953866,0 -77.26242455053723,45.93946419122617,0 -77.27768992492523,46.00931877479454,0 -77.2993307249464,46.03891895705435,0 -77.64732707297114,46.19865406198583,0 -77.78835046957029,46.19975237721248,0 -77.9892982439551,46.24825496553804,0 -78.15312133172907,46.27559679483697,0 -78.28981630220098,46.26908737264233,0 -80.36240087384816,45.42023185031924,0 -80.85215353495076,45.26723070293832,0 -80.24852131469261,44.74614772618565,0 -80.15591955978806,44.48446281684577,0 -80.19514506320623,44.39558847862192,0 -80.08218025650635,44.33827384434571,0 -79.99964085983372,44.310557162907,0 -79.91890701445406,44.21615827878497,0 -79.81900614416637,44.17642952038234,0 -79.79892629951277,44.11451795703135,0 -79.9183471124112,43.83881100043157,0 -79.6979741126525,43.98542158012336,0 
					</coordinates>
				</LinearRing>
			</outerBoundaryIs>
		</Polygon>
	</Placemark>
	<Placemark>
		<name>Toronto</name>
		<styleUrl>#default0</styleUrl>
		<Polygon>
			<tessellate>1</tessellate>
			<outerBoundaryIs>
				<LinearRing>
					<coordinates>
						-79.9182737209249,43.83868242079554,0 -79.95482139306105,43.75955104311167,0 -79.72347145135659,43.58690369017727,0 -79.68854225084611,43.50145638770128,0 -79.71014942229475,43.46554163305937,0 -79.62355828670786,43.3059802351306,0 -79.17170090598034,43.44998001403911,0 -78.51938254562333,43.59716894723175,0 -78.61998878018292,43.89806745266346,0 -78.69332220055668,43.97562492971733,0 -78.7393328369547,44.0313770305774,0 -78.89290623980982,44.04518295136811,0 -79.12654784931458,44.01021010814723,0 -79.21353518491669,44.02536532105324,0 -79.33374807317958,44.07449930552919,0 -79.49928618127603,44.01645866793132,0 -79.59695843878185,44.0016606483013,0 -79.69797080605242,43.98539235605281,0 -79.9182737209249,43.83868242079554,0 
					</coordinates>
				</LinearRing>
			</outerBoundaryIs>
		</Polygon>
	</Placemark>
	<Placemark>
		<name>Northeast</name>
		<styleUrl>#default0</styleUrl>
		<Polygon>
			<tessellate>1</tessellate>
			<outerBoundaryIs>
				<LinearRing>
					<coordinates>
						-84.8653107792139,46.89390986416267,0 -84.78337199145142,46.60991660835636,0 -84.54229301970469,46.44359541899152,0 -84.38974555596889,46.50854956497933,0 -84.27789500604952,46.4906107152113,0 -84.18905098000543,46.54022428761826,0 -84.08921519916908,46.16726618080658,0 -83.89646923495809,46.04847138587593,0 -83.7325257199019,46.14742240125354,0 -83.43809046493512,46.05857361078375,0 -83.53754231196889,45.8547811656592,0 -82.7602474994968,45.34187823121093,0 -81.90357181181808,45.35471417826776,0 -81.34267945931443,45.36960042368948,0 -80.85315887458098,45.26957964073619,0 -80.36267457125346,45.42032544597522,0 -79.34434526135682,45.8338208569976,0 -78.29237084730934,46.26867762571372,0 -78.69578335366634,46.32695614772155,0 -78.71756752216059,46.38473639879192,0 -78.94468811210953,46.50970167806201,0 -79.0139203289516,46.63591165460497,0 -79.0370229345162,46.64683347060573,0 -79.1699853945251,46.82087657885872,0 -79.23224886948735,46.85103618314051,0 -79.30748133376481,46.93348398937157,0 -79.33935843525936,47.00687469841792,0 -79.43503278859694,47.09280912651723,0 -79.42569761091742,47.26001297557008,0 -79.54215726352986,47.51136097335636,0 -79.50773735755043,47.56233101489965,0 -79.45233028257016,51.39164777737069,0 -79.80378772701881,51.71678194804241,0 -81.40819158445233,52.413209536119,0 -81.66279398305834,52.66851064564312,0 -82.19111261851079,52.98578627269986,0 -83.81944063332671,51.35445387780738,0 -84.82258728167976,49.64239871857802,0 -85.05240941334523,48.50409805782508,0 -84.99894242222619,47.94906262801293,0 -85.52591066472995,47.15767903725614,0 -84.8653107792139,46.89390986416267,0 
					</coordinates>
				</LinearRing>
			</outerBoundaryIs>
		</Polygon>
	</Placemark>
	<Placemark>
		<name>Bruce</name>
		<styleUrl>#default0</styleUrl>
		<Polygon>
			<tessellate>1</tessellate>
			<outerBoundaryIs>
				<LinearRing>
					<coordinates>
						-82.32237636910969,44.77007929414012,0 -82.12533659910163,43.87733082560302,0 -81.72585705146611,43.88901482723842,0 -81.38123149608127,43.94443486847661,0 -81.13281743363332,44.15008689390501,0 -81.05827484706491,44.38772944539465,0 -81.12011109592144,44.56836404894808,0 -81.29390981229709,44.75417976459008,0 -82.32237636910969,44.77007929414012,0 
					</coordinates>
				</LinearRing>
			</outerBoundaryIs>
		</Polygon>
	</Placemark>
	<Placemark>
		<name>Southwest</name>
		<styleUrl>#default0</styleUrl>
		<Polygon>
			<tessellate>1</tessellate>
			<outerBoundaryIs>
				<LinearRing>
					<coordinates>
						-82.32123358895971,44.77031640666495,0 -81.29276074729968,44.75414030949901,0 -81.11984170484973,44.57024904376029,0 -81.05640988428566,44.38735664641017,0 -81.13175622649391,44.15027951145976,0 -81.37943109329815,43.94339671143089,0 -81.72285813061134,43.88833046454884,0 -82.12363027732863,43.87621532445586,0 -82.1339879324964,43.61689661162278,0 -82.25237142296574,43.37326573114946,0 -81.15997319010415,43.08544603604383,0 -80.9707853098775,42.98856221466338,0 -80.72564682062263,42.90195605303691,0 -80.62565733960777,42.84558957022227,0 -80.78010687718483,42.75265860623943,0 -81.02064493769527,42.71619243480639,0 -81.08276456150105,42.68672672838969,0 -81.22912334719096,42.6867964566039,0 -81.2348640063361,42.66156372255983,0 -80.96033622102135,42.33748597890968,0 -80.23295406670573,42.36005050617791,0 -79.52081548528025,42.62927627907686,0 -79.67875449976438,42.85168445709437,0 -79.79490054689708,43.11585350417992,0 -79.62441053019192,43.30512923547774,0 -79.71156308487154,43.46634521512798,0 -79.68982038756154,43.50092858453128,0 -79.72410401473481,43.58662752358786,0 -79.95484725390966,43.75954388329588,0 -79.91706683465563,43.84189135476944,0 -79.79901053771954,44.1144774730311,0 -79.81903500067315,44.17642982209842,0 -79.91897119020861,44.21615828347034,0 -79.99970399915625,44.3105490582581,0 -80.0824059435266,44.33822847422587,0 -80.19522639374648,44.39558135510662,0 -80.15595425563237,44.48445502422954,0 -80.24853931244246,44.74614572525289,0 -80.85218537599329,45.26495110287298,0 -81.34889188672145,45.36268159421589,0 -82.75877227832984,45.33988580694866,0 -82.32123358895971,44.77031640666495,0 
					</coordinates>
				</LinearRing>
			</outerBoundaryIs>
		</Polygon>
	</Placemark>
	<Placemark>
		<name>Niagara</name>
		<styleUrl>#default0</styleUrl>
		<Polygon>
			<tessellate>1</tessellate>
			<outerBoundaryIs>
				<LinearRing>
					<coordinates>
						-79.52009332086587,42.62941815899757,0 -78.96096374779206,42.8294836905059,0 -78.89785800360377,42.89979054269506,0 -78.91397138608014,42.95426346687805,0 -79.01061869750998,42.99201101779566,0 -78.99805642010328,43.05622624455297,0 -79.06694641262727,43.08157752889059,0 -79.03147814587416,43.14698231912612,0 -79.05099391723272,43.25250785837387,0 -79.07333615665807,43.26603194916899,0 -79.17392781632644,43.44636375901509,0 -79.62383024110576,43.30519788102904,0 -79.79487868298672,43.11586296648613,0 -79.67885899137366,42.85197872914196,0 -79.52009332086587,42.62941815899757,0 
					</coordinates>
				</LinearRing>
			</outerBoundaryIs>
		</Polygon>
	</Placemark>
	<Placemark>
		<name>East</name>
		<styleUrl>#default0</styleUrl>
		<Polygon>
			<tessellate>1</tessellate>
			<outerBoundaryIs>
				<LinearRing>
					<coordinates>
						-79.21356074819211,44.02538638202919,0 -79.12653795063746,44.01021756034417,0 -78.89290652043732,44.04519552233969,0 -78.73929661251937,44.03139133632717,0 -78.69325262001813,43.97558490833297,0 -78.61967621402438,43.89803670429443,0 -78.51937363300883,43.59716361331608,0 -76.79689447285145,43.7237806342508,0 -76.43755531326163,44.09074880340876,0 -76.34936759146774,44.13798973760973,0 -76.31397059477668,44.19969967264793,0 -76.23865235423216,44.20312862534017,0 -76.17397017518512,44.23315504957943,0 -76.14942507574399,44.28148159010502,0 -75.99791150854148,44.34910471396596,0 -75.96057390110366,44.34529766542217,0 -75.88923398130727,44.38716721455004,0 -75.81500039787507,44.44148908549408,0 -75.79122577351579,44.50832257893622,0 -75.34178542628533,44.80698991188653,0 -74.95205367740624,44.98637048932811,0 -74.80970006070559,45.01183460280433,0 -74.73768409892914,44.99100085994311,0 -74.68221178490819,44.99954309547603,0 -74.48511340866092,45.07167074205481,0 -74.43308484128126,45.15231062821066,0 -74.32888350290216,45.20353276008175,0 -74.46552697605141,45.30472846918693,0 -74.37889675131137,45.55598993703431,0 -74.5556016103499,45.51550197140294,0 -75.11133145287812,45.17793630672298,0 -75.93714714734749,45.1572298824191,0 -75.99561117299156,45.21397821456656,0 -76.00408349233128,45.48423665118175,0 -76.00587766928248,45.4855469334037,0 -76.15294999801823,45.53296259528906,0 -76.24887632953636,45.5031912629484,0 -76.3046053460339,45.44226268336087,0 -76.45859044410382,45.52967523621786,0 -76.6511976767014,45.55619744263252,0 -76.69924178936861,45.68351489997089,0 -76.7310434718534,45.83602688281111,0 -76.78846465961344,45.88749823727122,0 -76.91876441550222,45.90503241105324,0 -76.91862345521228,45.80916395420569,0 -76.96738687168367,45.792741942672,0 -77.0248660417476,45.80866950787971,0 -77.08864363111944,45.83674823997818,0 -77.19343965257643,45.87497231954754,0 -78.10184468911282,45.30401510555063,0 -78.15930714165407,45.18588462289707,0 -78.35231195029723,44.61210918414318,0 -78.7798291893732,44.19735360366725,0 -79.21356074819211,44.02538638202919,0 
					</coordinates>
				</LinearRing>
			</outerBoundaryIs>
		</Polygon>
	</Placemark>
</Document>
</kml>
